{"type":"FeatureCollection","features":[{"type":"Feature","id":"u_fc_poi_farm.93","geometry":{"type":"Point","coordinates":[3.1320448,6.4794587]},"geometry_name":"geom","properties":{"state_code":"LA","source":"GRID","name":"Era Road Farm","type":"Subsistence","power_source":null,"category":"Crop Farm","ward_code":"LASOJO13","processing_facility":null,"global_id":"00a30d35-6ee2-4c79-a005-3a07bcf369a1"}},{"type":"Feature","id":"u_fc_poi_farm.149","geometry":{"type":"Point","coordinates":[3.8032411,6.6578102]},"geometry_name":"geom","properties":{"state_code":"LA","source":"GRID","name":"Itokin Rice Field Intra Farm Feeder Fadama Project","type":"Commercial","power_source":null,"category":"Crop Farm","ward_code":"LASEPE09","processing_facility":null,"global_id":"00f083d5-ab14-464e-bbf7-26ed52ce037a"}},{"type":"Feature","id":"u_fc_poi_farm.203","geometry":{"type":"Point","coordinates":[3.9110993,6.5441281]},"geometry_name":"geom","properties":{"state_code":"LA","source":"GRID","name":"Food Crop Farm 40","type":"Commercial","power_source":null,"category":"Crop Farm","ward_code":"LASEPE16","processing_facility":null,"global_id":"014dbed1-d755-4ffe-8927-e7bb81322e47"}},{"type":"Feature","id":"u_fc_poi_farm.312","geometry":{"type":"Point","coordinates":[3.1698108,6.5071633]},"geometry_name":"geom","properties":{"state_code":"LA","source":"GRID","name":"Oluwatedo Estate Phase 1","type":"Subsistence","power_source":null,"category":"Crop Farm","ward_code":"LASOJO05","processing_facility":null,"global_id":"01e79495-4878-451a-90af-fded4fb921b8"}},{"type":"Feature","id":"u_fc_poi_farm.316","geometry":{"type":"Point","coordinates":[3.9917251,6.6465404]},"geometry_name":"geom","properties":{"state_code":"LA","source":"GRID","name":"Food Crop Farm Nojimu Avenue 2","type":"Both","power_source":null,"category":"Crop Farm","ward_code":"LASEPE08","processing_facility":null,"global_id":"01f0554d-8207-4fbc-8551-1b77ed4f9627"}},{"type":"Feature","id":"u_fc_poi_farm.321","geometry":{"type":"Point","coordinates":[3.9727498,6.6038162]},"geometry_name":"geom","properties":{"state_code":"LA","source":"GRID","name":"Orewas Maize Farm","type":"Both","power_source":null,"category":"Crop Farm","ward_code":"LASEPE14","processing_facility":null,"global_id":"01f935c9-99d7-4900-9aad-76d5fbcbaa47"}},{"type":"Feature","id":"u_fc_poi_farm.370","geometry":{"type":"Point","coordinates":[3.72874,6.68007]},"geometry_name":"geom","properties":{"state_code":"LA","source":"GRID","name":"Food Crop Farm Oke Igbeyin Road","type":"Both","power_source":null,"category":"Crop Farm","ward_code":"LASEPE05","processing_facility":null,"global_id":"024eaba7-ab79-48dd-9b6f-76bdb525e134"}},{"type":"Feature","id":"u_fc_poi_farm.390","geometry":{"type":"Point","coordinates":[3.7237006,6.6604157]},"geometry_name":"geom","properties":{"state_code":"LA","source":"GRID","name":"Akinlolu Farm","type":"Commercial","power_source":null,"category":"Crop Farm","ward_code":"LASEPE05","processing_facility":null,"global_id":"0264f31b-9932-4ac6-9e90-112f09c04e68"}},{"type":"Feature","id":"u_fc_poi_farm.409","geometry":{"type":"Point","coordinates":[3.974553,6.6569598]},"geometry_name":"geom","properties":{"state_code":"LA","source":"GRID","name":"Food Crop Farm Agodo Oriyanrin Road 4","type":"Both","power_source":null,"category":"Crop Farm","ward_code":"LASEPE15","processing_facility":null,"global_id":"0283941c-5e24-4fb4-af5b-47a6f79f3573"}},{"type":"Feature","id":"u_fc_poi_farm.424","geometry":{"type":"Point","coordinates":[3.971842,6.658772]},"geometry_name":"geom","properties":{"state_code":"LA","source":"GRID","name":"Food Crop Farm Agodo Oriyanrin Road","type":"Commercial","power_source":null,"category":"Crop Farm","ward_code":"LASEPE15","processing_facility":null,"global_id":"0296cace-8145-4d65-af16-8ef5a0cfd923"}},{"type":"Feature","id":"u_fc_poi_farm.458","geometry":{"type":"Point","coordinates":[3.0012617,6.4982962]},"geometry_name":"geom","properties":{"state_code":"LA","source":"GRID","name":"Maize Plantation 1","type":"Commercial","power_source":null,"category":"Crop Farm","ward_code":"LASBDY13","processing_facility":null,"global_id":"02c7f28a-d1b3-42f6-9555-4b87afc0df36"}},{"type":"Feature","id":"u_fc_poi_farm.556","geometry":{"type":"Point","coordinates":[3.6052323,6.6635636]},"geometry_name":"geom","properties":{"state_code":"LA","source":"GRID","name":"Food Crop Farm Aleke","type":"Commercial","power_source":null,"category":"Crop Farm","ward_code":"LASIKU07","processing_facility":null,"global_id":"034cd77c-1c8e-49d5-abd1-2da2fe2beb57"}},{"type":"Feature","id":"u_fc_poi_farm.728","geometry":{"type":"Point","coordinates":[3.5395567,6.6546862]},"geometry_name":"geom","properties":{"state_code":"LA","source":"GRID","name":"Casava Farm Malaolu","type":"Commercial","power_source":null,"category":"Crop Farm","ward_code":"LASIKU03","processing_facility":null,"global_id":"045f119b-9dc3-4713-bee8-e0172917521f"}},{"type":"Feature","id":"u_fc_poi_farm.769","geometry":{"type":"Point","coordinates":[3.9973934,6.650908]},"geometry_name":"geom","properties":{"state_code":"LA","source":"GRID","name":"Tuber Farm 3","type":"Subsistence","power_source":null,"category":"Crop Farm","ward_code":"LASEPE08","processing_facility":null,"global_id":"04a00f06-9090-48c4-8778-58048d3811f5"}},{"type":"Feature","id":"u_fc_poi_farm.780","geometry":{"type":"Point","coordinates":[4.2172865,6.415819]},"geometry_name":"geom","properties":{"state_code":"LA","source":"GRID","name":"Maize Farm","type":"Commercial","power_source":null,"category":"Crop Farm","ward_code":"LASEPE16","processing_facility":null,"global_id":"04be668d-4390-40cc-8a33-315d3b57cb4a"}},{"type":"Feature","id":"u_fc_poi_farm.813","geometry":{"type":"Point","coordinates":[4.0016302,6.6769558]},"geometry_name":"geom","properties":{"state_code":"LA","source":"GRID","name":"Food Crop Farm 6","type":"Subsistence","power_source":null,"category":"Crop Farm","ward_code":"LASEPE13","processing_facility":null,"global_id":"04ee9222-e4b9-4a9d-a56a-d309b4a88c26"}},{"type":"Feature","id":"u_fc_poi_farm.817","geometry":{"type":"Point","coordinates":[3.1928791,6.4524955]},"geometry_name":"geom","properties":{"state_code":"LA","source":"GRID","name":"Food Crop Farm 8","type":"Subsistence","power_source":null,"category":"Crop Farm","ward_code":"LASOJO11","processing_facility":null,"global_id":"04f9fbb1-023d-4f80-afb5-1a866716031a"}},{"type":"Feature","id":"u_fc_poi_farm.821","geometry":{"type":"Point","coordinates":[3.61317,6.66981]},"geometry_name":"geom","properties":{"state_code":"LA","source":"GRID","name":"Cassava Farm 8","type":"Commercial","power_source":null,"category":"Crop Farm","ward_code":"LASIKU18","processing_facility":null,"global_id":"0500360f-1add-4ce5-8fef-1f58a2b9edb4"}},{"type":"Feature","id":"u_fc_poi_farm.851","geometry":{"type":"Point","coordinates":[3.2201641,6.4556729]},"geometry_name":"geom","properties":{"state_code":"LA","source":"GRID","name":"Lagos State Ministry Of Agriculture And Cooperatives Aiyedoto Farm","type":"Commercial","power_source":null,"category":"Mixed Farm","ward_code":"LASOJO08","processing_facility":null,"global_id":"05208d01-32e4-4ac2-905a-d78bfeadbfcb"}},{"type":"Feature","id":"u_fc_poi_farm.862","geometry":{"type":"Point","coordinates":[3.61698,6.6813113]},"geometry_name":"geom","properties":{"state_code":"LA","source":"GRID","name":"Food Crop Farm 30","type":"Commercial","power_source":null,"category":"Crop Farm","ward_code":"LASIKU18","processing_facility":null,"global_id":"052d625e-0415-47e0-9cb3-0de37a2ee276"}},{"type":"Feature","id":"u_fc_poi_farm.903","geometry":{"type":"Point","coordinates":[3.2890268,6.4825496]},"geometry_name":"geom","properties":{"state_code":"LA","source":"GRID","name":"Food Crop Farm 10","type":"Subsistence","power_source":null,"category":"Crop Farm","ward_code":"LASAON07","processing_facility":null,"global_id":"057d747f-4cd4-4e9d-9b0b-910d087dadf8"}},{"type":"Feature","id":"u_fc_poi_farm.930","geometry":{"type":"Point","coordinates":[3.5110296,6.5897318]},"geometry_name":"geom","properties":{"state_code":"LA","source":"GRID","name":"Ansarudeen Farm","type":"Subsistence","power_source":null,"category":"Crop Farm","ward_code":"LASIKU01","processing_facility":null,"global_id":"05b5a0e8-a328-426f-a08d-222f56e596a6"}},{"type":"Feature","id":"u_fc_poi_farm.943","geometry":{"type":"Point","coordinates":[4.0076178,6.5213578]},"geometry_name":"geom","properties":{"state_code":"LA","source":"GRID","name":"Food Crop Farm 56","type":"Commercial","power_source":null,"category":"Crop Farm","ward_code":"LASEPE16","processing_facility":null,"global_id":"05c64c35-607c-4b34-b723-cac8a9ba0e25"}},{"type":"Feature","id":"u_fc_poi_farm.953","geometry":{"type":"Point","coordinates":[2.79575,6.39108]},"geometry_name":"geom","properties":{"state_code":"LA","source":"GRID","name":"Food Crop Farm 1","type":"Both","power_source":null,"category":"Crop Farm","ward_code":"LASBDY05","processing_facility":null,"global_id":"05d977db-9c3d-4091-89e3-26df82616e01"}},{"type":"Feature","id":"u_fc_poi_farm.955","geometry":{"type":"Point","coordinates":[3.61304,6.66588]},"geometry_name":"geom","properties":{"state_code":"LA","source":"GRID","name":"Casava And Maize Farm","type":"Commercial","power_source":null,"category":"Crop Farm","ward_code":"LASIKU18","processing_facility":null,"global_id":"05da579a-6a1c-4869-ad1d-72dc08b1d00b"}},{"type":"Feature","id":"u_fc_poi_farm.1039","geometry":{"type":"Point","coordinates":[3.6231002,6.6711601]},"geometry_name":"geom","properties":{"state_code":"LA","source":"GRID","name":"Food Crop Farm 33","type":"Commercial","power_source":null,"category":"Crop Farm","ward_code":"LASIKU18","processing_facility":null,"global_id":"0666a633-851d-48d6-87bf-3a96cda46a2e"}},{"type":"Feature","id":"u_fc_poi_farm.1045","geometry":{"type":"Point","coordinates":[3.2406889,6.6415013]},"geometry_name":"geom","properties":{"state_code":"LA","source":"GRID","name":"Obasanjo Farm","type":"Commercial","power_source":null,"category":"Mixed Farm","ward_code":"LASAMO07","processing_facility":null,"global_id":"066864b0-10b2-4d9b-9989-13bf31a56344"}},{"type":"Feature","id":"u_fc_poi_farm.1051","geometry":{"type":"Point","coordinates":[3.719483,6.647037]},"geometry_name":"geom","properties":{"state_code":"LA","source":"GRID","name":"Old Lagos Road Banana Plantation","type":"Both","power_source":null,"category":"Crop Farm","ward_code":"LASEPE05","processing_facility":null,"global_id":"06740158-806c-4d0d-b339-179f37f19202"}},{"type":"Feature","id":"u_fc_poi_farm.1075","geometry":{"type":"Point","coordinates":[2.94961,6.49441]},"geometry_name":"geom","properties":{"state_code":"LA","source":"GRID","name":"Food Crop Farm 8","type":"Both","power_source":null,"category":"Crop Farm","ward_code":"LASBDY14","processing_facility":null,"global_id":"06919045-abaf-484f-abf7-bdeb843480f6"}},{"type":"Feature","id":"u_fc_poi_farm.1187","geometry":{"type":"Point","coordinates":[3.6618817,6.6166689]},"geometry_name":"geom","properties":{"state_code":"LA","source":"GRID","name":"Food Crop Farm 8","type":"Commercial","power_source":null,"category":"Crop Farm","ward_code":"LASIKU21","processing_facility":null,"global_id":"07307e67-206a-4adc-9746-e18dadda9fc6"}},{"type":"Feature","id":"u_fc_poi_farm.1235","geometry":{"type":"Point","coordinates":[3.7990929,6.6774185]},"geometry_name":"geom","properties":{"state_code":"LA","source":"GRID","name":"Rice Farm 2","type":"Commercial","power_source":null,"category":"Crop Farm","ward_code":"LASEPE09","processing_facility":null,"global_id":"077fd02d-e9b5-45dd-b143-d47532af1e25"}},{"type":"Feature","id":"u_fc_poi_farm.1280","geometry":{"type":"Point","coordinates":[3.1385241,6.4775119]},"geometry_name":"geom","properties":{"state_code":"LA","source":"GRID","name":"Abule Era Road Farm","type":"Subsistence","power_source":null,"category":"Crop Farm","ward_code":"LASOJO07","processing_facility":null,"global_id":"07bbb6dd-ab27-4bfc-a9ed-d736eb49e303"}},{"type":"Feature","id":"u_fc_poi_farm.1293","geometry":{"type":"Point","coordinates":[3.60871,6.6651]},"geometry_name":"geom","properties":{"state_code":"LA","source":"GRID","name":"Food Crop Farm Balogun Agba","type":"Subsistence","power_source":null,"category":"Crop Farm","ward_code":"LASIKU18","processing_facility":null,"global_id":"07caf976-25db-4d48-9f77-4cc1336b51dc"}},{"type":"Feature","id":"u_fc_poi_farm.1333","geometry":{"type":"Point","coordinates":[3.7286293,6.6790875]},"geometry_name":"geom","properties":{"state_code":"LA","source":"GRID","name":"Odo Onosa Farm","type":"Both","power_source":null,"category":"Crop Farm","ward_code":"LASEPE05","processing_facility":null,"global_id":"07fe7c3d-3ce5-4514-a6dc-d43fd6b22746"}},{"type":"Feature","id":"u_fc_poi_farm.1388","geometry":{"type":"Point","coordinates":[3.5017091,6.6644883]},"geometry_name":"geom","properties":{"state_code":"LA","source":"GRID","name":"Crescent Farm","type":"Both","power_source":null,"category":"Crop Farm","ward_code":"LASIKU06","processing_facility":null,"global_id":"084854f2-47bf-4cb8-a55d-1af3813cb050"}},{"type":"Feature","id":"u_fc_poi_farm.1435","geometry":{"type":"Point","coordinates":[3.5657115,6.5807675]},"geometry_name":"geom","properties":{"state_code":"LA","source":"GRID","name":"Alao Farm","type":"Both","power_source":null,"category":"Crop Farm","ward_code":"LASIKU11","processing_facility":null,"global_id":"08844390-1b89-4013-9dda-37f21c186ea2"}},{"type":"Feature","id":"u_fc_poi_farm.1458","geometry":{"type":"Point","coordinates":[3.6196028,6.649281]},"geometry_name":"geom","properties":{"state_code":"LA","source":"GRID","name":"Cassava Farm 4","type":"Commercial","power_source":null,"category":"Crop Farm","ward_code":"LASIKU07","processing_facility":null,"global_id":"08b8d4da-d2b1-4441-850a-9d124f015185"}},{"type":"Feature","id":"u_fc_poi_farm.1468","geometry":{"type":"Point","coordinates":[2.94623,6.50322]},"geometry_name":"geom","properties":{"state_code":"LA","source":"GRID","name":"Food Crop Farm 17","type":"Both","power_source":null,"category":"Crop Farm","ward_code":"LASBDY14","processing_facility":null,"global_id":"08c86ef2-fdca-4fb9-9e60-35233cb536d9"}},{"type":"Feature","id":"u_fc_poi_farm.1494","geometry":{"type":"Point","coordinates":[3.7309249,6.6741347]},"geometry_name":"geom","properties":{"state_code":"LA","source":"GRID","name":"Food Crop Farm Oke Igbeyin Road 1","type":"Both","power_source":null,"category":"Crop Farm","ward_code":"LASEPE05","processing_facility":null,"global_id":"08ebeef0-981f-4113-8a88-2ef5aeb083d1"}},{"type":"Feature","id":"u_fc_poi_farm.1576","geometry":{"type":"Point","coordinates":[2.9380317,6.509495]},"geometry_name":"geom","properties":{"state_code":"LA","source":"GRID","name":"Maize Farm 4","type":"Subsistence","power_source":null,"category":"Crop Farm","ward_code":"LASBDY14","processing_facility":null,"global_id":"0966faa2-a015-4b56-8be6-612974bf1a0f"}},{"type":"Feature","id":"u_fc_poi_farm.1641","geometry":{"type":"Point","coordinates":[3.7360157,6.6723743]},"geometry_name":"geom","properties":{"state_code":"LA","source":"GRID","name":"Food Crop Farm 1","type":"Both","power_source":null,"category":"Crop Farm","ward_code":"LASEPE05","processing_facility":null,"global_id":"09c8db57-3072-4ef1-93d0-3f4546501f46"}},{"type":"Feature","id":"u_fc_poi_farm.1665","geometry":{"type":"Point","coordinates":[3.2205639,6.4925238]},"geometry_name":"geom","properties":{"state_code":"LA","source":"GRID","name":"Food Crop Farm 5","type":"Subsistence","power_source":null,"category":"Crop Farm","ward_code":"LASOJO08","processing_facility":null,"global_id":"09e6c7b5-b962-4f18-a3dc-35a208d80a1c"}},{"type":"Feature","id":"u_fc_poi_farm.1672","geometry":{"type":"Point","coordinates":[3.9886352,6.654608]},"geometry_name":"geom","properties":{"state_code":"LA","source":"GRID","name":"Femoduns Farm","type":"Commercial","power_source":null,"category":"Crop Farm","ward_code":"LASEPE13","processing_facility":null,"global_id":"09f3f6ff-c79f-4d17-961f-4ba3b80cf5c3"}},{"type":"Feature","id":"u_fc_poi_farm.1790","geometry":{"type":"Point","coordinates":[3.2367192,6.459113]},"geometry_name":"geom","properties":{"state_code":"LA","source":"GRID","name":"Barrack Farm","type":"Subsistence","power_source":null,"category":"Unknown","ward_code":"LASOJO08","processing_facility":null,"global_id":"0a9fa587-b149-4c69-9eb9-0da101c06654"}},{"type":"Feature","id":"u_fc_poi_farm.1860","geometry":{"type":"Point","coordinates":[3.909987,6.5371835]},"geometry_name":"geom","properties":{"state_code":"LA","source":"GRID","name":"Food Crop Farm Success Street 2","type":"Both","power_source":null,"category":"Crop Farm","ward_code":"LASEPE16","processing_facility":null,"global_id":"0b12e413-4f3c-438f-9e7d-e74b9c7f6286"}},{"type":"Feature","id":"u_fc_poi_farm.1875","geometry":{"type":"Point","coordinates":[3.37107,6.49519]},"geometry_name":"geom","properties":{"state_code":"LA","source":"GRID","name":"Food Crop Farm Ikejiani Street","type":"Subsistence","power_source":null,"category":"Unknown","ward_code":"LASLMD11","processing_facility":null,"global_id":"0b278975-885c-496e-97b8-4e4ed3c0aca6"}},{"type":"Feature","id":"u_fc_poi_farm.1938","geometry":{"type":"Point","coordinates":[3.61667,6.6048597]},"geometry_name":"geom","properties":{"state_code":"LA","source":"GRID","name":"Oluwole Lukas Farm","type":"Both","power_source":null,"category":"Crop Farm","ward_code":"LASIKU04","processing_facility":null,"global_id":"0b883780-fd7f-49a1-a155-ae2115ea55d4"}},{"type":"Feature","id":"u_fc_poi_farm.2043","geometry":{"type":"Point","coordinates":[3.5919206,6.6574498]},"geometry_name":"geom","properties":{"state_code":"LA","source":"GRID","name":"Oluodo Farm 3","type":"Subsistence","power_source":null,"category":"Crop Farm","ward_code":"LASIKU04","processing_facility":null,"global_id":"0c189162-f79f-413e-af55-3a0aa7bdc188"}},{"type":"Feature","id":"u_fc_poi_farm.2289","geometry":{"type":"Point","coordinates":[3.0999209,6.4594243]},"geometry_name":"geom","properties":{"state_code":"LA","source":"GRID","name":"Isaac Asade Farm 1","type":"Subsistence","power_source":null,"category":"Crop Farm","ward_code":"LASOJO03","processing_facility":null,"global_id":"0d84f3b7-7625-423e-b26a-a16ea7a6fe0e"}},{"type":"Feature","id":"u_fc_poi_farm.2422","geometry":{"type":"Point","coordinates":[3.49272,6.67783]},"geometry_name":"geom","properties":{"state_code":"LA","source":"GRID","name":"Maize Farm 1","type":"Commercial","power_source":null,"category":"Crop Farm","ward_code":"LASIKU23","processing_facility":null,"global_id":"0e56beed-47ea-4d43-a62e-c16944ee5091"}},{"type":"Feature","id":"u_fc_poi_farm.2427","geometry":{"type":"Point","coordinates":[3.5076779,6.6432532]},"geometry_name":"geom","properties":{"state_code":"LA","source":"GRID","name":"Maize And Casava Farm 3rd Avenue Street 2","type":"Both","power_source":null,"category":"Crop Farm","ward_code":"LASIKU06","processing_facility":null,"global_id":"0e5f48bc-1204-4a62-9b71-be88b44dc7ba"}},{"type":"Feature","id":"u_fc_poi_farm.2428","geometry":{"type":"Point","coordinates":[3.99647,6.61549]},"geometry_name":"geom","properties":{"state_code":"LA","source":"GRID","name":"Food Crop Farm 6","type":"Both","power_source":null,"category":"Crop Farm","ward_code":"LASEPE14","processing_facility":null,"global_id":"0e5f8cf8-6a75-418c-8197-e12d6e7a4de9"}},{"type":"Feature","id":"u_fc_poi_farm.2433","geometry":{"type":"Point","coordinates":[3.99899,6.61615]},"geometry_name":"geom","properties":{"state_code":"LA","source":"GRID","name":"Food Crop Farm 12","type":"Both","power_source":null,"category":"Crop Farm","ward_code":"LASEPE14","processing_facility":null,"global_id":"0e675834-1b45-455d-b573-dc99a2bf61a1"}},{"type":"Feature","id":"u_fc_poi_farm.2481","geometry":{"type":"Point","coordinates":[2.993704,6.4176677]},"geometry_name":"geom","properties":{"state_code":"LA","source":"GRID","name":"Animal Farm","type":"Commercial","power_source":null,"category":"Animal Farm","ward_code":"LASBDY04","processing_facility":null,"global_id":"0eaa7062-4f24-487f-9635-3d419f253224"}},{"type":"Feature","id":"u_fc_poi_farm.2609","geometry":{"type":"Point","coordinates":[4.0107188,6.5905444]},"geometry_name":"geom","properties":{"state_code":"LA","source":"GRID","name":"Ile Efun Farm 3","type":"Both","power_source":null,"category":"Crop Farm","ward_code":"LASEPE11","processing_facility":null,"global_id":"0f5493b0-0599-4350-86eb-b0cf6b6bfa8a"}},{"type":"Feature","id":"u_fc_poi_farm.2682","geometry":{"type":"Point","coordinates":[3.9984565,6.5202833]},"geometry_name":"geom","properties":{"state_code":"LA","source":"GRID","name":"Food Crop Farm 55","type":"Commercial","power_source":null,"category":"Crop Farm","ward_code":"LASEPE16","processing_facility":null,"global_id":"0fad3b71-59f3-4c25-b35c-aeee3cd40f3f"}},{"type":"Feature","id":"u_fc_poi_farm.2689","geometry":{"type":"Point","coordinates":[2.93889,6.5099]},"geometry_name":"geom","properties":{"state_code":"LA","source":"GRID","name":"Cassava Farm 11","type":"Subsistence","power_source":null,"category":"Animal Farm","ward_code":"LASBDY14","processing_facility":null,"global_id":"0fb47751-2acd-4d24-93bb-65ef4df97413"}},{"type":"Feature","id":"u_fc_poi_farm.2706","geometry":{"type":"Point","coordinates":[3.5871712,6.6828598]},"geometry_name":"geom","properties":{"state_code":"LA","source":"GRID","name":"Food Crop Farm 8","type":"Both","power_source":null,"category":"Crop Farm","ward_code":"LASIKU27","processing_facility":null,"global_id":"0fc426a9-09d4-471d-aa75-eafe12d718e3"}},{"type":"Feature","id":"u_fc_poi_farm.2771","geometry":{"type":"Point","coordinates":[3.50754,6.64393]},"geometry_name":"geom","properties":{"state_code":"LA","source":"GRID","name":"Maize And Casava Farm 1","type":"Subsistence","power_source":null,"category":"Crop Farm","ward_code":"LASIKU06","processing_facility":null,"global_id":"101ae1b0-dc57-428f-b467-6fe65d8f00e8"}},{"type":"Feature","id":"u_fc_poi_farm.2793","geometry":{"type":"Point","coordinates":[3.8993656,6.6347543]},"geometry_name":"geom","properties":{"state_code":"LA","source":"GRID","name":"Food Crop Farm 5","type":"Both","power_source":null,"category":"Crop Farm","ward_code":"LASEPE09","processing_facility":null,"global_id":"10325802-5001-4fc5-bbf9-9102519196eb"}},{"type":"Feature","id":"u_fc_poi_farm.2821","geometry":{"type":"Point","coordinates":[2.8670956,6.4315513]},"geometry_name":"geom","properties":{"state_code":"LA","source":"GRID","name":"Ministry Of Agriculture And Cooperative","type":"Commercial","power_source":null,"category":"Crop Farm","ward_code":"LASBDY02","processing_facility":null,"global_id":"1064b940-b8ac-40c1-b299-156bffb40cb9"}},{"type":"Feature","id":"u_fc_poi_farm.2882","geometry":{"type":"Point","coordinates":[3.7504874,6.6748456]},"geometry_name":"geom","properties":{"state_code":"LA","source":"GRID","name":"Poultry Farm 1","type":"Commercial","power_source":null,"category":"Animal Farm","ward_code":"LASEPE05","processing_facility":null,"global_id":"10b6a7b6-6648-4df8-8f51-787f10cdd54f"}},{"type":"Feature","id":"u_fc_poi_farm.2972","geometry":{"type":"Point","coordinates":[3.9976232,6.6517378]},"geometry_name":"geom","properties":{"state_code":"LA","source":"GRID","name":"Cereal Farm","type":"Subsistence","power_source":null,"category":"Crop Farm","ward_code":"LASEPE08","processing_facility":null,"global_id":"11332df4-6883-4c3e-ac11-2506fdd29549"}},{"type":"Feature","id":"u_fc_poi_farm.2984","geometry":{"type":"Point","coordinates":[3.9943844,6.5326471]},"geometry_name":"geom","properties":{"state_code":"LA","source":"GRID","name":"Food Crop Farm 47","type":"Both","power_source":null,"category":"Crop Farm","ward_code":"LASEPE16","processing_facility":null,"global_id":"1147c2a1-2a07-4ea2-a6c3-e3581a32f4a1"}},{"type":"Feature","id":"u_fc_poi_farm.3014","geometry":{"type":"Point","coordinates":[4.0014002,6.6154671]},"geometry_name":"geom","properties":{"state_code":"LA","source":"GRID","name":"Food Crop Farm 19","type":"Both","power_source":null,"category":"Crop Farm","ward_code":"LASEPE11","processing_facility":null,"global_id":"11750005-e558-4273-9fb3-48f8de0d7007"}},{"type":"Feature","id":"u_fc_poi_farm.3044","geometry":{"type":"Point","coordinates":[3.6041498,6.6808715]},"geometry_name":"geom","properties":{"state_code":"LA","source":"GRID","name":"Maize Casava And Potato Farm","type":"Commercial","power_source":null,"category":"Crop Farm","ward_code":"LASIKU18","processing_facility":null,"global_id":"11a70500-111e-404c-a72c-ea2f9bf1f2b0"}},{"type":"Feature","id":"u_fc_poi_farm.3045","geometry":{"type":"Point","coordinates":[4.0003727,6.6151898]},"geometry_name":"geom","properties":{"state_code":"LA","source":"GRID","name":"Food Crop Farm 17","type":"Both","power_source":null,"category":"Crop Farm","ward_code":"LASEPE14","processing_facility":null,"global_id":"11a82fd6-5279-4211-9b42-68b79c997b44"}},{"type":"Feature","id":"u_fc_poi_farm.3213","geometry":{"type":"Point","coordinates":[3.5395812,6.6645229]},"geometry_name":"geom","properties":{"state_code":"LA","source":"GRID","name":"Maize And Plantain Farm","type":"Both","power_source":null,"category":"Crop Farm","ward_code":"LASIKU03","processing_facility":null,"global_id":"12a2f385-f820-4a6a-a2d0-4d796f3dd322"}},{"type":"Feature","id":"u_fc_poi_farm.3497","geometry":{"type":"Point","coordinates":[3.5079855,6.6427985]},"geometry_name":"geom","properties":{"state_code":"LA","source":"GRID","name":"Maize Farm 3rd Avenue Street","type":"Both","power_source":null,"category":"Crop Farm","ward_code":"LASIKU06","processing_facility":null,"global_id":"14395752-afac-429b-8c19-3f92b01794f9"}},{"type":"Feature","id":"u_fc_poi_farm.3706","geometry":{"type":"Point","coordinates":[3.9365534,6.5772255]},"geometry_name":"geom","properties":{"state_code":"LA","source":"GRID","name":"Food Crop Farm 43","type":"Both","power_source":null,"category":"Crop Farm","ward_code":"LASEPE16","processing_facility":null,"global_id":"1554a96c-798e-4ef1-87ec-61ab4259387e"}},{"type":"Feature","id":"u_fc_poi_farm.3732","geometry":{"type":"Point","coordinates":[2.7843439,6.3890425]},"geometry_name":"geom","properties":{"state_code":"LA","source":"GRID","name":"Animal Farm","type":"Both","power_source":null,"category":"Animal Farm","ward_code":"LASBDY10","processing_facility":null,"global_id":"15725529-c239-4a5f-bb6e-11f342566828"}},{"type":"Feature","id":"u_fc_poi_farm.3821","geometry":{"type":"Point","coordinates":[2.93957,6.50842]},"geometry_name":"geom","properties":{"state_code":"LA","source":"GRID","name":"Maize Farm 17","type":"Subsistence","power_source":null,"category":"Crop Farm","ward_code":"LASBDY14","processing_facility":null,"global_id":"15e491a4-124e-446b-9749-55cd3ad510d0"}},{"type":"Feature","id":"u_fc_poi_farm.3822","geometry":{"type":"Point","coordinates":[3.6016178,6.6775049]},"geometry_name":"geom","properties":{"state_code":"LA","source":"GRID","name":"Maize And Sugarcane Farm","type":"Subsistence","power_source":null,"category":"Crop Farm","ward_code":"LASIKU18","processing_facility":null,"global_id":"15e5be61-9f1d-462e-8288-f3cebc1cc4fa"}},{"type":"Feature","id":"u_fc_poi_farm.3826","geometry":{"type":"Point","coordinates":[3.9933858,6.6811081]},"geometry_name":"geom","properties":{"state_code":"LA","source":"GRID","name":"Food Crop Farm 58","type":"Commercial","power_source":null,"category":"Crop Farm","ward_code":"LASEPE13","processing_facility":null,"global_id":"15eb3e70-da59-4bc6-a3e6-533b9fe7f41f"}},{"type":"Feature","id":"u_fc_poi_farm.3961","geometry":{"type":"Point","coordinates":[3.0456163,6.4753919]},"geometry_name":"geom","properties":{"state_code":"LA","source":"GRID","name":"Ist Avenue Farm","type":"Commercial","power_source":null,"category":"Crop Farm","ward_code":"LASBDY08","processing_facility":null,"global_id":"16b03b58-5ab4-426b-807c-16e93f5528c5"}},{"type":"Feature","id":"u_fc_poi_farm.4115","geometry":{"type":"Point","coordinates":[3.11043,6.46101]},"geometry_name":"geom","properties":{"state_code":"LA","source":"GRID","name":"Abapasha Road Farm","type":"Subsistence","power_source":null,"category":"Crop Farm","ward_code":"LASOJO03","processing_facility":null,"global_id":"178ee2bf-b371-4d07-9081-f18a0841cb36"}},{"type":"Feature","id":"u_fc_poi_farm.4128","geometry":{"type":"Point","coordinates":[3.2337225,6.4431726]},"geometry_name":"geom","properties":{"state_code":"LA","source":"GRID","name":"Uchenna Mmako Farm","type":"Subsistence","power_source":null,"category":"Crop Farm","ward_code":"LASAON05","processing_facility":null,"global_id":"17993b96-f0f7-48ad-960f-f3b41a875703"}},{"type":"Feature","id":"u_fc_poi_farm.4137","geometry":{"type":"Point","coordinates":[3.585,6.62663]},"geometry_name":"geom","properties":{"state_code":"LA","source":"GRID","name":"Food Crop Farm Royal London Estate Street 1","type":"Both","power_source":null,"category":"Crop Farm","ward_code":"LASIKU04","processing_facility":null,"global_id":"17a0c3ae-bf24-4e7e-96e5-6b8484bcb973"}},{"type":"Feature","id":"u_fc_poi_farm.4275","geometry":{"type":"Point","coordinates":[3.98735,6.643018]},"geometry_name":"geom","properties":{"state_code":"LA","source":"GRID","name":"Oil Palm Farm","type":"Commercial","power_source":null,"category":"Crop Farm","ward_code":"LASEPE15","processing_facility":null,"global_id":"18803774-7a66-42b4-81b9-d54589a50c4e"}},{"type":"Feature","id":"u_fc_poi_farm.4340","geometry":{"type":"Point","coordinates":[3.5882288,6.677959]},"geometry_name":"geom","properties":{"state_code":"LA","source":"GRID","name":"Food Crop Farm 15","type":"Both","power_source":null,"category":"Crop Farm","ward_code":"LASIKU27","processing_facility":null,"global_id":"18e066e1-2274-493e-b82a-74a5802ab57d"}},{"type":"Feature","id":"u_fc_poi_farm.4401","geometry":{"type":"Point","coordinates":[3.3727142,6.4967809]},"geometry_name":"geom","properties":{"state_code":"LA","source":"GRID","name":"Food Crop Farm Ahmad Bello Street","type":"Commercial","power_source":null,"category":"Crop Farm","ward_code":"LASLMD11","processing_facility":null,"global_id":"193873fb-567b-48ad-8dc8-0f90c2566dc0"}},{"type":"Feature","id":"u_fc_poi_farm.4426","geometry":{"type":"Point","coordinates":[3.5379821,6.6660014]},"geometry_name":"geom","properties":{"state_code":"LA","source":"GRID","name":"Food Crop Farm","type":"Both","power_source":null,"category":"Crop Farm","ward_code":"LASIKU03","processing_facility":null,"global_id":"195efd3a-3ff7-4a88-b70d-24605e157e56"}},{"type":"Feature","id":"u_fc_poi_farm.4487","geometry":{"type":"Point","coordinates":[3.99758,6.65244]},"geometry_name":"geom","properties":{"state_code":"LA","source":"GRID","name":"Ayoade Farm","type":"Subsistence","power_source":null,"category":"Crop Farm","ward_code":"LASEPE13","processing_facility":null,"global_id":"19c79895-ebfa-4c50-a194-188c4af363cc"}},{"type":"Feature","id":"u_fc_poi_farm.4539","geometry":{"type":"Point","coordinates":[3.7373141,6.6710152]},"geometry_name":"geom","properties":{"state_code":"LA","source":"GRID","name":"Food Crop Farm Beach Road 3","type":"Both","power_source":null,"category":"Crop Farm","ward_code":"LASEPE05","processing_facility":null,"global_id":"1a07182e-e4a4-463f-ac20-314c3e9f8d54"}},{"type":"Feature","id":"u_fc_poi_farm.4549","geometry":{"type":"Point","coordinates":[3.22362,6.47868]},"geometry_name":"geom","properties":{"state_code":"LA","source":"GRID","name":"Food Crop Farm 7","type":"Subsistence","power_source":null,"category":"Crop Farm","ward_code":"LASOJO08","processing_facility":null,"global_id":"1a147d56-f580-4698-b84a-b221ff93a6bc"}},{"type":"Feature","id":"u_fc_poi_farm.4552","geometry":{"type":"Point","coordinates":[3.70766,6.62902]},"geometry_name":"geom","properties":{"state_code":"LA","source":"GRID","name":"Ogundeyin Street Farm 2","type":"Both","power_source":null,"category":"Crop Farm","ward_code":"LASEPE02","processing_facility":null,"global_id":"1a16078e-0cde-4944-b6ce-9c2c3815e88b"}},{"type":"Feature","id":"u_fc_poi_farm.4565","geometry":{"type":"Point","coordinates":[3.5653933,6.5813799]},"geometry_name":"geom","properties":{"state_code":"LA","source":"GRID","name":"Tripple A Farms Enterprises","type":"Commercial","power_source":null,"category":"Animal Farm","ward_code":"LASIKU11","processing_facility":null,"global_id":"1a2f61eb-0ebd-4c19-8be5-e03816855982"}},{"type":"Feature","id":"u_fc_poi_farm.4663","geometry":{"type":"Point","coordinates":[3.4901856,6.6680152]},"geometry_name":"geom","properties":{"state_code":"LA","source":"GRID","name":"Food Crop Farm 3","type":"Subsistence","power_source":null,"category":"Crop Farm","ward_code":"LASIKU06","processing_facility":null,"global_id":"1aac9500-dad3-4813-a38c-d9add33c4927"}},{"type":"Feature","id":"u_fc_poi_farm.4673","geometry":{"type":"Point","coordinates":[3.96269,6.6303]},"geometry_name":"geom","properties":{"state_code":"LA","source":"GRID","name":"Jajok Farm","type":"Commercial","power_source":null,"category":"Animal Farm","ward_code":"LASEPE15","processing_facility":null,"global_id":"1ac7904a-045f-4d1e-804c-2850248acc1c"}},{"type":"Feature","id":"u_fc_poi_farm.4695","geometry":{"type":"Point","coordinates":[3.9992431,6.6159314]},"geometry_name":"geom","properties":{"state_code":"LA","source":"GRID","name":"Food Crop Farm 11","type":"Both","power_source":null,"category":"Crop Farm","ward_code":"LASEPE14","processing_facility":null,"global_id":"1aeab57a-8220-4e9d-8f85-4932697324c3"}},{"type":"Feature","id":"u_fc_poi_farm.4840","geometry":{"type":"Point","coordinates":[3.5212839,6.5557294]},"geometry_name":"geom","properties":{"state_code":"LA","source":"GRID","name":"Alabama Farm Limited","type":"Both","power_source":null,"category":"Animal Farm","ward_code":"LASIKU01","processing_facility":null,"global_id":"1bb5ff03-f39e-44d9-9334-7494b17e872f"}},{"type":"Feature","id":"u_fc_poi_farm.4842","geometry":{"type":"Point","coordinates":[3.5906186,6.6035364]},"geometry_name":"geom","properties":{"state_code":"LA","source":"GRID","name":"Yam Farm","type":"Subsistence","power_source":null,"category":"Crop Farm","ward_code":"LASIKU24","processing_facility":null,"global_id":"1bb9416e-3702-4b29-9e59-ec7dc7cbfd11"}},{"type":"Feature","id":"u_fc_poi_farm.4920","geometry":{"type":"Point","coordinates":[3.9978399,6.6139109]},"geometry_name":"geom","properties":{"state_code":"LA","source":"GRID","name":"Food Crop Farm 2","type":"Both","power_source":null,"category":"Crop Farm","ward_code":"LASEPE14","processing_facility":null,"global_id":"1c2dfafc-472b-48d1-98ae-81b75e44bae1"}},{"type":"Feature","id":"u_fc_poi_farm.4996","geometry":{"type":"Point","coordinates":[3.4989425,6.559539]},"geometry_name":"geom","properties":{"state_code":"LA","source":"GRID","name":"Adediji Farm","type":"Subsistence","power_source":null,"category":"Crop Farm","ward_code":"LASIKU01","processing_facility":null,"global_id":"1c9d542b-0110-40be-9fad-ed24ef92de09"}},{"type":"Feature","id":"u_fc_poi_farm.5059","geometry":{"type":"Point","coordinates":[3.6126872,6.6791748]},"geometry_name":"geom","properties":{"state_code":"LA","source":"GRID","name":"Food Crop Farm 23","type":"Subsistence","power_source":null,"category":"Crop Farm","ward_code":"LASIKU18","processing_facility":null,"global_id":"1ceaa482-c86d-402e-84e9-b5eed7b08bd5"}},{"type":"Feature","id":"u_fc_poi_farm.5061","geometry":{"type":"Point","coordinates":[3.571404,6.6690285]},"geometry_name":"geom","properties":{"state_code":"LA","source":"GRID","name":"Itele Agbaku Farm","type":"Both","power_source":null,"category":"Mixed Farm","ward_code":"LASIKU12","processing_facility":null,"global_id":"1cef5617-3120-4292-b76f-0b1bb11ddd4c"}},{"type":"Feature","id":"u_fc_poi_farm.5128","geometry":{"type":"Point","coordinates":[3.6256558,6.5932649]},"geometry_name":"geom","properties":{"state_code":"LA","source":"GRID","name":"Adekoya Adetunbosun Farm","type":"Commercial","power_source":null,"category":"Mixed Farm","ward_code":"LASIKU04","processing_facility":null,"global_id":"1d4f5619-e1ee-466d-afc5-de4159ac3d8e"}},{"type":"Feature","id":"u_fc_poi_farm.5148","geometry":{"type":"Point","coordinates":[3.6005834,6.679972]},"geometry_name":"geom","properties":{"state_code":"LA","source":"GRID","name":"Casava And Cocoa Yam Farm","type":"Both","power_source":null,"category":"Crop Farm","ward_code":"LASIKU18","processing_facility":null,"global_id":"1d6e5b53-14e3-4271-9273-67e5fadbf955"}},{"type":"Feature","id":"u_fc_poi_farm.5168","geometry":{"type":"Point","coordinates":[2.9481798,6.4944882]},"geometry_name":"geom","properties":{"state_code":"LA","source":"GRID","name":"Food Crop Farm 6","type":"Subsistence","power_source":null,"category":"Crop Farm","ward_code":"LASBDY14","processing_facility":null,"global_id":"1d894452-e5af-449e-9313-1c55865ea47b"}},{"type":"Feature","id":"u_fc_poi_farm.5237","geometry":{"type":"Point","coordinates":[3.54673,6.65509]},"geometry_name":"geom","properties":{"state_code":"LA","source":"GRID","name":"Cassava Farm Damonlapa","type":"Subsistence","power_source":null,"category":"Crop Farm","ward_code":"LASIKU03","processing_facility":null,"global_id":"1df87119-5787-4d13-ab1c-6e1e38d8b7f4"}},{"type":"Feature","id":"u_fc_poi_farm.5427","geometry":{"type":"Point","coordinates":[3.7941118,6.6622086]},"geometry_name":"geom","properties":{"state_code":"LA","source":"GRID","name":"Agric Farm Ltoikin","type":"Commercial","power_source":null,"category":"Mixed Farm","ward_code":"LASEPE09","processing_facility":null,"global_id":"1f2cf405-0efb-4ffa-b28c-ce154d7198f1"}},{"type":"Feature","id":"u_fc_poi_farm.5587","geometry":{"type":"Point","coordinates":[4.26989,6.40173]},"geometry_name":"geom","properties":{"state_code":"LA","source":"GRID","name":"Fish Farm","type":"Commercial","power_source":null,"category":"Animal Farm","ward_code":"LASEPE16","processing_facility":null,"global_id":"200acc60-eed7-4d15-9c19-6515138b6114"}},{"type":"Feature","id":"u_fc_poi_farm.5730","geometry":{"type":"Point","coordinates":[3.4903613,6.6680097]},"geometry_name":"geom","properties":{"state_code":"LA","source":"GRID","name":"Food Crop Farm 4","type":"Subsistence","power_source":null,"category":"Crop Farm","ward_code":"LASIKU06","processing_facility":null,"global_id":"20dfa3c8-d244-4e4f-860a-baa3b478d449"}},{"type":"Feature","id":"u_fc_poi_farm.5738","geometry":{"type":"Point","coordinates":[4.0031088,6.5246715]},"geometry_name":"geom","properties":{"state_code":"LA","source":"GRID","name":"Iya Aja Farm","type":"Both","power_source":null,"category":"Crop Farm","ward_code":"LASEPE16","processing_facility":null,"global_id":"20ea9c6f-3892-4305-a54f-b62102a62d35"}},{"type":"Feature","id":"u_fc_poi_farm.5771","geometry":{"type":"Point","coordinates":[2.9154494,6.4895464]},"geometry_name":"geom","properties":{"state_code":"LA","source":"GRID","name":"Maize Farm 9","type":"Both","power_source":null,"category":"Crop Farm","ward_code":"LASBDY14","processing_facility":null,"global_id":"2118fc84-f639-4545-9c4d-f79607f442c9"}},{"type":"Feature","id":"u_fc_poi_farm.5874","geometry":{"type":"Point","coordinates":[4.04383,6.6734]},"geometry_name":"geom","properties":{"state_code":"LA","source":"GRID","name":"Lagos State Farm Fadama Project","type":"Commercial","power_source":null,"category":"Mixed Farm","ward_code":"LASEPE10","processing_facility":null,"global_id":"21ae136b-68f0-4728-963c-cadc05b1caa2"}},{"type":"Feature","id":"u_fc_poi_farm.5880","geometry":{"type":"Point","coordinates":[3.0107457,6.49472]},"geometry_name":"geom","properties":{"state_code":"LA","source":"GRID","name":"Maize And Cassava Plantation","type":"Commercial","power_source":null,"category":"Crop Farm","ward_code":"LASBDY13","processing_facility":null,"global_id":"21b4b8e3-da5e-41eb-93a7-efcbb791cb49"}},{"type":"Feature","id":"u_fc_poi_farm.5893","geometry":{"type":"Point","coordinates":[3.7305304,6.6458286]},"geometry_name":"geom","properties":{"state_code":"LA","source":"GRID","name":"Michael Folorunsho Cassava Farm","type":"Both","power_source":null,"category":"Crop Farm","ward_code":"LASEPE05","processing_facility":null,"global_id":"21c8e5c1-f6cb-43af-932b-d30419873620"}},{"type":"Feature","id":"u_fc_poi_farm.5916","geometry":{"type":"Point","coordinates":[3.9008506,6.5337772]},"geometry_name":"geom","properties":{"state_code":"LA","source":"GRID","name":"Food Crop Farm 34","type":"Commercial","power_source":null,"category":"Mixed Farm","ward_code":"LASEPE16","processing_facility":null,"global_id":"21ea2bbf-69fa-418f-af5d-fee94311158b"}},{"type":"Feature","id":"u_fc_poi_farm.5951","geometry":{"type":"Point","coordinates":[3.9324205,6.5657931]},"geometry_name":"geom","properties":{"state_code":"LA","source":"GRID","name":"Oil Palm Farm","type":"Commercial","power_source":null,"category":"Unknown","ward_code":"LASEPE16","processing_facility":null,"global_id":"222229e2-8059-483e-8a8e-ac3ef9018aae"}},{"type":"Feature","id":"u_fc_poi_farm.6057","geometry":{"type":"Point","coordinates":[3.72707,6.67885]},"geometry_name":"geom","properties":{"state_code":"LA","source":"GRID","name":"Food Crop Farm Odo Ayandelu Road 4","type":"Both","power_source":null,"category":"Crop Farm","ward_code":"LASEPE05","processing_facility":null,"global_id":"22bf5aac-0d87-42dd-a0c3-939f2e238cb0"}},{"type":"Feature","id":"u_fc_poi_farm.6189","geometry":{"type":"Point","coordinates":[3.58907,6.67624]},"geometry_name":"geom","properties":{"state_code":"LA","source":"GRID","name":"Food Crop Farm 39","type":"Both","power_source":null,"category":"Crop Farm","ward_code":"LASIKU27","processing_facility":null,"global_id":"238b965f-725b-4e73-9e8c-45a89b0d4db5"}},{"type":"Feature","id":"u_fc_poi_farm.6219","geometry":{"type":"Point","coordinates":[3.7338318,6.6695674]},"geometry_name":"geom","properties":{"state_code":"LA","source":"GRID","name":"Food Crop Farm Ajagbe Street 3","type":"Both","power_source":null,"category":"Crop Farm","ward_code":"LASEPE05","processing_facility":null,"global_id":"23af81f9-13f8-4e09-9ab9-ebcd3ae9e0f4"}},{"type":"Feature","id":"u_fc_poi_farm.6362","geometry":{"type":"Point","coordinates":[2.93861,6.50914]},"geometry_name":"geom","properties":{"state_code":"LA","source":"GRID","name":"Cassava Farm 13","type":"Subsistence","power_source":null,"category":"Animal Farm","ward_code":"LASBDY14","processing_facility":null,"global_id":"2472249e-6a76-470b-a5aa-08557ba948c3"}},{"type":"Feature","id":"u_fc_poi_farm.6520","geometry":{"type":"Point","coordinates":[3.6020475,6.6789179]},"geometry_name":"geom","properties":{"state_code":"LA","source":"GRID","name":"Cassava Farm 17","type":"Commercial","power_source":null,"category":"Crop Farm","ward_code":"LASIKU18","processing_facility":null,"global_id":"2557d01d-b761-4e19-b39e-d474da6df803"}},{"type":"Feature","id":"u_fc_poi_farm.6533","geometry":{"type":"Point","coordinates":[3.5477924,6.5697972]},"geometry_name":"geom","properties":{"state_code":"LA","source":"GRID","name":"First Transformer Farm","type":"Subsistence","power_source":null,"category":"Crop Farm","ward_code":"LASIKU01","processing_facility":null,"global_id":"256d1e49-c517-4938-972b-20facfd3925f"}},{"type":"Feature","id":"u_fc_poi_farm.6543","geometry":{"type":"Point","coordinates":[3.4991598,6.5934164]},"geometry_name":"geom","properties":{"state_code":"LA","source":"GRID","name":"Oluodo Farm","type":"Both","power_source":null,"category":"Crop Farm","ward_code":"LASIKU01","processing_facility":null,"global_id":"257ef6f9-0c3e-4713-b1a1-7c8e2166f2dd"}},{"type":"Feature","id":"u_fc_poi_farm.6590","geometry":{"type":"Point","coordinates":[3.7243793,6.6608998]},"geometry_name":"geom","properties":{"state_code":"LA","source":"GRID","name":"Lynn Way Farm Nig Limited","type":"Commercial","power_source":null,"category":"Crop Farm","ward_code":"LASEPE05","processing_facility":null,"global_id":"25c4c554-fab3-4033-bb99-c5edc1b99eab"}},{"type":"Feature","id":"u_fc_poi_farm.6671","geometry":{"type":"Point","coordinates":[3.5803978,6.629613]},"geometry_name":"geom","properties":{"state_code":"LA","source":"GRID","name":"Food Crop Farm Dauda Asikolaye Street","type":"Both","power_source":null,"category":"Crop Farm","ward_code":"LASIKU04","processing_facility":null,"global_id":"263e5937-293e-4e76-9435-4367f4e5d84c"}},{"type":"Feature","id":"u_fc_poi_farm.6714","geometry":{"type":"Point","coordinates":[3.58965,6.67662]},"geometry_name":"geom","properties":{"state_code":"LA","source":"GRID","name":"Food Crop Farm 20","type":"Both","power_source":null,"category":"Crop Farm","ward_code":"LASIKU27","processing_facility":null,"global_id":"267c73ca-a810-4e0a-a8b9-c9a7a9ed50a3"}},{"type":"Feature","id":"u_fc_poi_farm.6718","geometry":{"type":"Point","coordinates":[3.615972,6.6048025]},"geometry_name":"geom","properties":{"state_code":"LA","source":"GRID","name":"Sunday Bakare Farm","type":"Both","power_source":null,"category":"Mixed Farm","ward_code":"LASIKU04","processing_facility":null,"global_id":"26805476-71a5-494d-bdb8-335919a83793"}},{"type":"Feature","id":"u_fc_poi_farm.6729","geometry":{"type":"Point","coordinates":[3.6668514,6.4586365]},"geometry_name":"geom","properties":{"state_code":"LA","source":"GRID","name":"Catholic Mission Road Farm","type":"Subsistence","power_source":null,"category":"Unknown","ward_code":"LASIUI04","processing_facility":null,"global_id":"268af912-4aee-4089-b2c7-91392f169270"}},{"type":"Feature","id":"u_fc_poi_farm.6769","geometry":{"type":"Point","coordinates":[3.4840941,6.5535971]},"geometry_name":"geom","properties":{"state_code":"LA","source":"GRID","name":"Enpel Farm","type":"Commercial","power_source":null,"category":"Mixed Farm","ward_code":"LASIKU13","processing_facility":null,"global_id":"26b659cc-8550-45af-8694-61c534461a07"}},{"type":"Feature","id":"u_fc_poi_farm.6838","geometry":{"type":"Point","coordinates":[2.9440614,6.4119232]},"geometry_name":"geom","properties":{"state_code":"LA","source":"GRID","name":"Akarakunmo Road Farm","type":"Commercial","power_source":null,"category":"Crop Farm","ward_code":"LASBDY12","processing_facility":null,"global_id":"271f0862-8280-4f56-ae5c-128e527f62b7"}},{"type":"Feature","id":"u_fc_poi_farm.6852","geometry":{"type":"Point","coordinates":[4.0071807,6.5187168]},"geometry_name":"geom","properties":{"state_code":"LA","source":"GRID","name":"Food Crop Farm 58","type":"Commercial","power_source":null,"category":"Crop Farm","ward_code":"LASEPE16","processing_facility":null,"global_id":"27330c62-c495-4aea-a5c4-5cf983a21e1f"}},{"type":"Feature","id":"u_fc_poi_farm.6935","geometry":{"type":"Point","coordinates":[3.79956,6.67909]},"geometry_name":"geom","properties":{"state_code":"LA","source":"GRID","name":"Holis Botanical Garden","type":"Commercial","power_source":null,"category":"Mixed Farm","ward_code":"LASEPE09","processing_facility":null,"global_id":"27ac915f-ebd0-4010-80ad-c45d24314413"}},{"type":"Feature","id":"u_fc_poi_farm.6956","geometry":{"type":"Point","coordinates":[3.5771599,6.5964379]},"geometry_name":"geom","properties":{"state_code":"LA","source":"GRID","name":"Ashabi Farm","type":"Subsistence","power_source":null,"category":"Crop Farm","ward_code":"LASIKU24","processing_facility":null,"global_id":"27d6cb1a-75ae-44fa-9f4a-e912ce57a751"}},{"type":"Feature","id":"u_fc_poi_farm.6997","geometry":{"type":"Point","coordinates":[4.0464914,6.5100128]},"geometry_name":"geom","properties":{"state_code":"LA","source":"GRID","name":"Jayo Farm 2","type":"Both","power_source":null,"category":"Crop Farm","ward_code":"LASEPE16","processing_facility":null,"global_id":"280ac174-7e78-4d07-8b18-4017471b7903"}},{"type":"Feature","id":"u_fc_poi_farm.7056","geometry":{"type":"Point","coordinates":[3.61317,6.67021]},"geometry_name":"geom","properties":{"state_code":"LA","source":"GRID","name":"Maize Farm 9","type":"Commercial","power_source":null,"category":"Crop Farm","ward_code":"LASIKU18","processing_facility":null,"global_id":"285b0039-0891-4517-9074-4d169cca3bdd"}},{"type":"Feature","id":"u_fc_poi_farm.7098","geometry":{"type":"Point","coordinates":[3.4838339,6.6738582]},"geometry_name":"geom","properties":{"state_code":"LA","source":"GRID","name":"Food Crop Farm 1","type":"Subsistence","power_source":null,"category":"Crop Farm","ward_code":"LASIKU06","processing_facility":null,"global_id":"28a8acde-922a-42fc-b24d-16a6e30d5624"}},{"type":"Feature","id":"u_fc_poi_farm.7124","geometry":{"type":"Point","coordinates":[3.58297,6.62666]},"geometry_name":"geom","properties":{"state_code":"LA","source":"GRID","name":"Food Crop Farm Lookman Ogusami Street","type":"Subsistence","power_source":null,"category":"Crop Farm","ward_code":"LASIKU04","processing_facility":null,"global_id":"28d7de5c-31be-474d-be64-d952c72e237b"}},{"type":"Feature","id":"u_fc_poi_farm.7211","geometry":{"type":"Point","coordinates":[3.1519477,6.4840795]},"geometry_name":"geom","properties":{"state_code":"LA","source":"GRID","name":"Modupe Olu Faseke Farm","type":"Subsistence","power_source":null,"category":"Crop Farm","ward_code":"LASOJO13","processing_facility":null,"global_id":"29568ad9-6774-4737-9a68-2336c314c026"}},{"type":"Feature","id":"u_fc_poi_farm.7265","geometry":{"type":"Point","coordinates":[3.8473832,6.5841447]},"geometry_name":"geom","properties":{"state_code":"LA","source":"GRID","name":"Food Crop Farm 33","type":"Commercial","power_source":null,"category":"Crop Farm","ward_code":"LASEPE12","processing_facility":null,"global_id":"29b27f23-afee-4547-abf6-aab571cd6e74"}},{"type":"Feature","id":"u_fc_poi_farm.7269","geometry":{"type":"Point","coordinates":[3.6015383,6.6784745]},"geometry_name":"geom","properties":{"state_code":"LA","source":"GRID","name":"Cassava Farm 16","type":"Commercial","power_source":null,"category":"Crop Farm","ward_code":"LASIKU18","processing_facility":null,"global_id":"29b72ba5-82ef-42d0-a440-a70feb2957a3"}},{"type":"Feature","id":"u_fc_poi_farm.7271","geometry":{"type":"Point","coordinates":[3.58374,6.66506]},"geometry_name":"geom","properties":{"state_code":"LA","source":"GRID","name":"Diamond Estate Farm","type":"Both","power_source":null,"category":"Crop Farm","ward_code":"LASIKU18","processing_facility":null,"global_id":"29b9d5e9-f915-4c9d-9c99-731c5f905f80"}},{"type":"Feature","id":"u_fc_poi_farm.7287","geometry":{"type":"Point","coordinates":[3.73766,6.4718846]},"geometry_name":"geom","properties":{"state_code":"LA","source":"GRID","name":"Food Crop Farm 4","type":"Subsistence","power_source":null,"category":"Crop Farm","ward_code":"LASIUI04","processing_facility":null,"global_id":"29d6ae7e-a5d4-485d-a480-662dbd80d154"}},{"type":"Feature","id":"u_fc_poi_farm.7297","geometry":{"type":"Point","coordinates":[4.0481728,6.5105085]},"geometry_name":"geom","properties":{"state_code":"LA","source":"GRID","name":"Igbo Apawa Farm 1","type":"Both","power_source":null,"category":"Crop Farm","ward_code":"LASEPE16","processing_facility":null,"global_id":"29e34ab7-21b0-4a26-97ce-bbcd9565e39e"}},{"type":"Feature","id":"u_fc_poi_farm.7344","geometry":{"type":"Point","coordinates":[2.8845573,6.4408183]},"geometry_name":"geom","properties":{"state_code":"LA","source":"GRID","name":"Coconut Plantation","type":"Commercial","power_source":null,"category":"Mixed Farm","ward_code":"LASBDY03","processing_facility":null,"global_id":"2a2812ac-180a-49d5-b4b2-b3b54ec408c2"}},{"type":"Feature","id":"u_fc_poi_farm.7353","geometry":{"type":"Point","coordinates":[2.94719,6.49294]},"geometry_name":"geom","properties":{"state_code":"LA","source":"GRID","name":"Food Crop Farm 4","type":"Both","power_source":null,"category":"Crop Farm","ward_code":"LASBDY14","processing_facility":null,"global_id":"2a37a966-198f-4862-81d1-9940eb9f2c91"}},{"type":"Feature","id":"u_fc_poi_farm.7506","geometry":{"type":"Point","coordinates":[2.7750395,6.4211561]},"geometry_name":"geom","properties":{"state_code":"LA","source":"GRID","name":"Agric Farm","type":"Commercial","power_source":null,"category":"Crop Farm","ward_code":"LASBDY10","processing_facility":null,"global_id":"2afa4881-a834-4527-8b30-be2688668126"}},{"type":"Feature","id":"u_fc_poi_farm.7608","geometry":{"type":"Point","coordinates":[3.7967006,6.4796496]},"geometry_name":"geom","properties":{"state_code":"LA","source":"GRID","name":"Casava Farm Ogungbesan Close Onosa Village","type":"Subsistence","power_source":null,"category":"Crop Farm","ward_code":"LASIUI02","processing_facility":null,"global_id":"2b9c6495-4066-451a-ab6e-ab1249efa158"}},{"type":"Feature","id":"u_fc_poi_farm.7652","geometry":{"type":"Point","coordinates":[3.6379839,6.6089235]},"geometry_name":"geom","properties":{"state_code":"LA","source":"GRID","name":"Methodist Church Farm","type":"Both","power_source":null,"category":"Crop Farm","ward_code":"LASIKU07","processing_facility":null,"global_id":"2be4c9f2-367a-4c0b-945c-21e7207f91bb"}},{"type":"Feature","id":"u_fc_poi_farm.7678","geometry":{"type":"Point","coordinates":[4.000043,6.5256312]},"geometry_name":"geom","properties":{"state_code":"LA","source":"GRID","name":"Food Crop Farm 52","type":"Both","power_source":null,"category":"Crop Farm","ward_code":"LASEPE16","processing_facility":null,"global_id":"2c074b2d-6d05-49ad-b0a3-3b7efaea3598"}},{"type":"Feature","id":"u_fc_poi_farm.7753","geometry":{"type":"Point","coordinates":[3.9964909,6.6152135]},"geometry_name":"geom","properties":{"state_code":"LA","source":"GRID","name":"Food Crop Farm 5","type":"Both","power_source":null,"category":"Crop Farm","ward_code":"LASEPE14","processing_facility":null,"global_id":"2c6a6798-0426-4c31-a8c8-490d1d3fb8ab"}},{"type":"Feature","id":"u_fc_poi_farm.7805","geometry":{"type":"Point","coordinates":[2.8844352,6.4444401]},"geometry_name":"geom","properties":{"state_code":"LA","source":"GRID","name":"Food Crop Farm","type":"Both","power_source":null,"category":"Animal Farm","ward_code":"LASBDY03","processing_facility":null,"global_id":"2ccb4ccd-6dca-4561-85b6-285eaa1ef723"}},{"type":"Feature","id":"u_fc_poi_farm.7833","geometry":{"type":"Point","coordinates":[3.6200475,6.6496908]},"geometry_name":"geom","properties":{"state_code":"LA","source":"GRID","name":"Cassava Farm 5","type":"Commercial","power_source":null,"category":"Crop Farm","ward_code":"LASIKU07","processing_facility":null,"global_id":"2cf60ae7-93a4-4af4-8ce4-3ecc893ac074"}},{"type":"Feature","id":"u_fc_poi_farm.7889","geometry":{"type":"Point","coordinates":[3.5467,6.65596]},"geometry_name":"geom","properties":{"state_code":"LA","source":"GRID","name":"Damonlapa Farm","type":"Commercial","power_source":null,"category":"Animal Farm","ward_code":"LASIKU03","processing_facility":null,"global_id":"2d544ff2-e309-4357-bb8a-a5774b8e7c6b"}},{"type":"Feature","id":"u_fc_poi_farm.7941","geometry":{"type":"Point","coordinates":[3.5633212,6.6746132]},"geometry_name":"geom","properties":{"state_code":"LA","source":"GRID","name":"Food Crop Farm 1","type":"Both","power_source":null,"category":"Mixed Farm","ward_code":"LASIKU12","processing_facility":null,"global_id":"2da01456-580d-4923-b540-77bcfb78013c"}},{"type":"Feature","id":"u_fc_poi_farm.7953","geometry":{"type":"Point","coordinates":[3.89186,6.53517]},"geometry_name":"geom","properties":{"state_code":"LA","source":"GRID","name":"Food Crop Farm","type":"Subsistence","power_source":null,"category":"Mixed Farm","ward_code":"LASEPE16","processing_facility":null,"global_id":"2dae4f91-ab4c-49e2-bf2b-9da75f545119"}},{"type":"Feature","id":"u_fc_poi_farm.7964","geometry":{"type":"Point","coordinates":[3.6163425,6.680323]},"geometry_name":"geom","properties":{"state_code":"LA","source":"GRID","name":"Food Crop Farm 28","type":"Both","power_source":null,"category":"Crop Farm","ward_code":"LASIKU18","processing_facility":null,"global_id":"2db4d0f8-6e9b-4e78-b3a0-c93d8e9a36d9"}},{"type":"Feature","id":"u_fc_poi_farm.8039","geometry":{"type":"Point","coordinates":[3.1390096,6.4782101]},"geometry_name":"geom","properties":{"state_code":"LA","source":"GRID","name":"Abule Odan Era Farm","type":"Subsistence","power_source":null,"category":"Crop Farm","ward_code":"LASOJO07","processing_facility":null,"global_id":"2e1e286d-6e82-4d5e-adaa-2a154f5df1b3"}},{"type":"Feature","id":"u_fc_poi_farm.8127","geometry":{"type":"Point","coordinates":[3.7314524,6.646923]},"geometry_name":"geom","properties":{"state_code":"LA","source":"GRID","name":"Owu Health Center Maize Farm","type":"Both","power_source":null,"category":"Crop Farm","ward_code":"LASEPE05","processing_facility":null,"global_id":"2e936f6b-265d-464f-9497-732a43c5ec67"}},{"type":"Feature","id":"u_fc_poi_farm.8141","geometry":{"type":"Point","coordinates":[3.7481183,6.4813842]},"geometry_name":"geom","properties":{"state_code":"LA","source":"GRID","name":"Food Crop Farm 15","type":"Subsistence","power_source":null,"category":"Crop Farm","ward_code":"LASIUI05","processing_facility":null,"global_id":"2eaf6f88-8ca3-4e1e-b846-d8a4c2aa1a9a"}},{"type":"Feature","id":"u_fc_poi_farm.8164","geometry":{"type":"Point","coordinates":[3.5941706,6.5888351]},"geometry_name":"geom","properties":{"state_code":"LA","source":"GRID","name":"Engr Balogun Farm","type":"Both","power_source":null,"category":"Crop Farm","ward_code":"LASIKU24","processing_facility":null,"global_id":"2ece0750-8849-4286-943c-189255a16a1f"}},{"type":"Feature","id":"u_fc_poi_farm.8431","geometry":{"type":"Point","coordinates":[3.8539867,6.5235929]},"geometry_name":"geom","properties":{"state_code":"LA","source":"GRID","name":"Poultry Farm","type":"Commercial","power_source":null,"category":"Animal Farm","ward_code":"LASEPE12","processing_facility":null,"global_id":"30711f3e-4cef-4a01-9df2-c23fc3a1c019"}},{"type":"Feature","id":"u_fc_poi_farm.8440","geometry":{"type":"Point","coordinates":[3.7648099,6.5076036]},"geometry_name":"geom","properties":{"state_code":"LA","source":"GRID","name":"Food Crop Farm 19","type":"Both","power_source":null,"category":"Crop Farm","ward_code":"LASEPE12","processing_facility":null,"global_id":"307e42a5-3d8e-43f0-b060-4f8b6e4afb52"}},{"type":"Feature","id":"u_fc_poi_farm.8543","geometry":{"type":"Point","coordinates":[3.1423151,6.4186247]},"geometry_name":"geom","properties":{"state_code":"LA","source":"GRID","name":"Osolu Farm","type":"Subsistence","power_source":null,"category":"Crop Farm","ward_code":"LASOJO09","processing_facility":null,"global_id":"30f6b945-5f9d-41c7-9200-d38d8e469a6e"}},{"type":"Feature","id":"u_fc_poi_farm.8562","geometry":{"type":"Point","coordinates":[3.590934,6.6558945]},"geometry_name":"geom","properties":{"state_code":"LA","source":"GRID","name":"Oluodo Farm 1","type":"Both","power_source":null,"category":"Crop Farm","ward_code":"LASIKU04","processing_facility":null,"global_id":"31155d21-d814-4ea2-9311-86b533e818d4"}},{"type":"Feature","id":"u_fc_poi_farm.8619","geometry":{"type":"Point","coordinates":[3.57396,6.64266]},"geometry_name":"geom","properties":{"state_code":"LA","source":"GRID","name":"Food Crop Farm 5","type":"Subsistence","power_source":null,"category":"Crop Farm","ward_code":"LASIKU04","processing_facility":null,"global_id":"3179ab25-3737-4e5f-9c0f-8a29932d2a88"}},{"type":"Feature","id":"u_fc_poi_farm.8672","geometry":{"type":"Point","coordinates":[3.00138,6.4986]},"geometry_name":"geom","properties":{"state_code":"LA","source":"GRID","name":"Maize Farm 2","type":"Commercial","power_source":null,"category":"Crop Farm","ward_code":"LASBDY13","processing_facility":null,"global_id":"31cb8a8d-ace6-4339-bc29-89f821c172c5"}},{"type":"Feature","id":"u_fc_poi_farm.8704","geometry":{"type":"Point","coordinates":[3.2240216,6.5838703]},"geometry_name":"geom","properties":{"state_code":"LA","source":"GRID","name":"Food Crop Farm 71","type":"Commercial","power_source":null,"category":"Crop Farm","ward_code":"LASAMO15","processing_facility":null,"global_id":"31f6f26c-1dca-4bae-9ad7-6e5203d99e45"}},{"type":"Feature","id":"u_fc_poi_farm.8706","geometry":{"type":"Point","coordinates":[3.7366164,6.6723871]},"geometry_name":"geom","properties":{"state_code":"LA","source":"GRID","name":"Food Crop Farm 3","type":"Both","power_source":null,"category":"Crop Farm","ward_code":"LASEPE05","processing_facility":null,"global_id":"31fadd99-0d92-4706-a966-623b9083fccf"}},{"type":"Feature","id":"u_fc_poi_farm.8720","geometry":{"type":"Point","coordinates":[3.62654,6.6615]},"geometry_name":"geom","properties":{"state_code":"LA","source":"GRID","name":"Plantain Farm","type":"Subsistence","power_source":null,"category":"Crop Farm","ward_code":"LASIKU07","processing_facility":null,"global_id":"320d6465-b874-4b14-b958-8d6b688fc036"}},{"type":"Feature","id":"u_fc_poi_farm.8845","geometry":{"type":"Point","coordinates":[3.00429,6.50032]},"geometry_name":"geom","properties":{"state_code":"LA","source":"GRID","name":"Maize Plantation 2","type":"Commercial","power_source":null,"category":"Crop Farm","ward_code":"LASBDY13","processing_facility":null,"global_id":"32be3e55-6aa0-4736-9bac-74b681af4c77"}},{"type":"Feature","id":"u_fc_poi_farm.8915","geometry":{"type":"Point","coordinates":[2.9425785,6.4970516]},"geometry_name":"geom","properties":{"state_code":"LA","source":"GRID","name":"Ekaghuo Farm","type":"Both","power_source":null,"category":"Animal Farm","ward_code":"LASBDY14","processing_facility":null,"global_id":"333bd5e8-9642-4af1-89d3-e1e31fbb4ba9"}},{"type":"Feature","id":"u_fc_poi_farm.8961","geometry":{"type":"Point","coordinates":[3.5823537,6.6269761]},"geometry_name":"geom","properties":{"state_code":"LA","source":"GRID","name":"Saala Junction Farm","type":"Both","power_source":null,"category":"Crop Farm","ward_code":"LASIKU04","processing_facility":null,"global_id":"3381caa1-7383-4925-8786-147345eda1d5"}},{"type":"Feature","id":"u_fc_poi_farm.9024","geometry":{"type":"Point","coordinates":[3.5681973,6.6673495]},"geometry_name":"geom","properties":{"state_code":"LA","source":"GRID","name":"Food Crop Farm 6","type":"Both","power_source":null,"category":"Mixed Farm","ward_code":"LASIKU12","processing_facility":null,"global_id":"33d6ecd4-f7d9-4c5a-8def-6bd339311f8b"}},{"type":"Feature","id":"u_fc_poi_farm.9085","geometry":{"type":"Point","coordinates":[3.5893406,6.5801429]},"geometry_name":"geom","properties":{"state_code":"LA","source":"GRID","name":"Lagos State Farm","type":"Commercial","power_source":null,"category":"Crop Farm","ward_code":"LASIKU25","processing_facility":null,"global_id":"342ada29-22db-4bda-839e-d2a424f880b8"}},{"type":"Feature","id":"u_fc_poi_farm.9126","geometry":{"type":"Point","coordinates":[3.062951,6.4934634]},"geometry_name":"geom","properties":{"state_code":"LA","source":"GRID","name":"Babs Daudu Farm","type":"Commercial","power_source":null,"category":"Animal Farm","ward_code":"LASBDY11","processing_facility":null,"global_id":"3459cbc9-d775-46fb-82d6-66fd179a94c0"}},{"type":"Feature","id":"u_fc_poi_farm.9134","geometry":{"type":"Point","coordinates":[3.56906,6.67409]},"geometry_name":"geom","properties":{"state_code":"LA","source":"GRID","name":"Food Crop Farm 8","type":"Both","power_source":null,"category":"Mixed Farm","ward_code":"LASIKU12","processing_facility":null,"global_id":"3466b78e-112f-422b-b935-16af85988d46"}},{"type":"Feature","id":"u_fc_poi_farm.9229","geometry":{"type":"Point","coordinates":[3.4905653,6.6682089]},"geometry_name":"geom","properties":{"state_code":"LA","source":"GRID","name":"Food Crop Farm 5","type":"Subsistence","power_source":null,"category":"Crop Farm","ward_code":"LASIKU06","processing_facility":null,"global_id":"34eade07-c17d-42f1-a7d6-e636813177f7"}},{"type":"Feature","id":"u_fc_poi_farm.9286","geometry":{"type":"Point","coordinates":[3.9510537,6.6838367]},"geometry_name":"geom","properties":{"state_code":"LA","source":"GRID","name":"Onagbodu Farm","type":"Both","power_source":null,"category":"Crop Farm","ward_code":"LASEPE15","processing_facility":null,"global_id":"352de3ec-bf38-45be-93fe-31e06c899e0b"}},{"type":"Feature","id":"u_fc_poi_farm.9294","geometry":{"type":"Point","coordinates":[3.7710918,6.5060583]},"geometry_name":"geom","properties":{"state_code":"LA","source":"GRID","name":"Food Crop Farm 25","type":"Both","power_source":null,"category":"Crop Farm","ward_code":"LASEPE12","processing_facility":null,"global_id":"353516fb-889f-4f6b-8489-52c3bd890d33"}},{"type":"Feature","id":"u_fc_poi_farm.9342","geometry":{"type":"Point","coordinates":[3.6234698,6.6457872]},"geometry_name":"geom","properties":{"state_code":"LA","source":"GRID","name":"Cassava Farm 2","type":"Commercial","power_source":null,"category":"Crop Farm","ward_code":"LASIKU07","processing_facility":null,"global_id":"358c584e-8484-4707-a292-2035df11879d"}},{"type":"Feature","id":"u_fc_poi_farm.9354","geometry":{"type":"Point","coordinates":[3.5805601,6.6285815]},"geometry_name":"geom","properties":{"state_code":"LA","source":"GRID","name":"Food Crop Farm Victor Oliseemaka Street","type":"Both","power_source":null,"category":"Crop Farm","ward_code":"LASIKU04","processing_facility":null,"global_id":"359fa179-ea2c-4f79-9213-c769d6aac32a"}},{"type":"Feature","id":"u_fc_poi_farm.9392","geometry":{"type":"Point","coordinates":[3.52461,6.66697]},"geometry_name":"geom","properties":{"state_code":"LA","source":"GRID","name":"Maize Farm 3","type":"Commercial","power_source":null,"category":"Crop Farm","ward_code":"LASIKU23","processing_facility":null,"global_id":"35cc36da-9bcb-4204-8342-1cf4359ad4d0"}},{"type":"Feature","id":"u_fc_poi_farm.9396","geometry":{"type":"Point","coordinates":[3.82477,6.64723]},"geometry_name":"geom","properties":{"state_code":"LA","source":"GRID","name":"Maseju Maize Farm 1","type":"Both","power_source":null,"category":"Crop Farm","ward_code":"LASEPE09","processing_facility":null,"global_id":"35d56167-977a-424e-91c1-5e0f632ac536"}},{"type":"Feature","id":"u_fc_poi_farm.9399","geometry":{"type":"Point","coordinates":[2.93902,6.50948]},"geometry_name":"geom","properties":{"state_code":"LA","source":"GRID","name":"Maize And Cassava Farm 5","type":"Subsistence","power_source":null,"category":"Crop Farm","ward_code":"LASBDY14","processing_facility":null,"global_id":"35d9a356-5334-4e10-9801-82f15f851261"}},{"type":"Feature","id":"u_fc_poi_farm.9461","geometry":{"type":"Point","coordinates":[3.3220224,6.4615992]},"geometry_name":"geom","properties":{"state_code":"LA","source":"GRID","name":"Suru Alaba Farm","type":"Subsistence","power_source":null,"category":"Unknown","ward_code":"LASATO14","processing_facility":null,"global_id":"363b1a14-0716-406f-a1b9-b7a6953a52ac"}},{"type":"Feature","id":"u_fc_poi_farm.9665","geometry":{"type":"Point","coordinates":[3.141887,6.4152921]},"geometry_name":"geom","properties":{"state_code":"LA","source":"GRID","name":"Irewe Farm","type":"Subsistence","power_source":null,"category":"Crop Farm","ward_code":"LASOJO09","processing_facility":null,"global_id":"374ed1b9-fcca-415a-9024-d9aaadb51e1f"}},{"type":"Feature","id":"u_fc_poi_farm.9666","geometry":{"type":"Point","coordinates":[3.5896838,6.6781724]},"geometry_name":"geom","properties":{"state_code":"LA","source":"GRID","name":"Food Crop Farm 17","type":"Subsistence","power_source":null,"category":"Crop Farm","ward_code":"LASIKU27","processing_facility":null,"global_id":"374f32d5-5fed-460f-8779-41d973f41fd0"}},{"type":"Feature","id":"u_fc_poi_farm.9706","geometry":{"type":"Point","coordinates":[3.53493,6.65159]},"geometry_name":"geom","properties":{"state_code":"LA","source":"GRID","name":"Laketu Farm 1","type":"Both","power_source":null,"category":"Crop Farm","ward_code":"LASIKU03","processing_facility":null,"global_id":"37842aea-3656-41d0-b05f-7e7f40fbb78b"}},{"type":"Feature","id":"u_fc_poi_farm.9708","geometry":{"type":"Point","coordinates":[2.7840025,6.3888998]},"geometry_name":"geom","properties":{"state_code":"LA","source":"GRID","name":"Food Crop Farm 7","type":"Both","power_source":null,"category":"Crop Farm","ward_code":"LASBDY10","processing_facility":null,"global_id":"37896575-7d2b-4a63-a749-7df0daeaa9e2"}},{"type":"Feature","id":"u_fc_poi_farm.9767","geometry":{"type":"Point","coordinates":[3.661222,6.4450234]},"geometry_name":"geom","properties":{"state_code":"LA","source":"GRID","name":"Food Crop Farm 11","type":"Subsistence","power_source":null,"category":"Crop Farm","ward_code":"LASIUI04","processing_facility":null,"global_id":"37cf8ac1-e0f2-48c0-9e0a-45d9fae95a9c"}},{"type":"Feature","id":"u_fc_poi_farm.9770","geometry":{"type":"Point","coordinates":[3.5432611,6.615811]},"geometry_name":"geom","properties":{"state_code":"LA","source":"GRID","name":"Cassava Farm","type":"Subsistence","power_source":null,"category":"Crop Farm","ward_code":"LASIKU29","processing_facility":null,"global_id":"37d1e367-16c5-4e75-af2c-bd0165b748e1"}},{"type":"Feature","id":"u_fc_poi_farm.9804","geometry":{"type":"Point","coordinates":[3.6696161,6.6752684]},"geometry_name":"geom","properties":{"state_code":"LA","source":"GRID","name":"Livestock Farm","type":"Commercial","power_source":null,"category":"Animal Farm","ward_code":"LASIKU18","processing_facility":null,"global_id":"3807df67-d0e4-4332-999b-36c572d9d56f"}},{"type":"Feature","id":"u_fc_poi_farm.9816","geometry":{"type":"Point","coordinates":[3.9142138,6.6256]},"geometry_name":"geom","properties":{"state_code":"LA","source":"GRID","name":"Ebute Road Farm 2","type":"Both","power_source":null,"category":"Crop Farm","ward_code":"LASEPE09","processing_facility":null,"global_id":"381d99ec-37ab-4234-b897-d45f2b4861ed"}},{"type":"Feature","id":"u_fc_poi_farm.9845","geometry":{"type":"Point","coordinates":[3.9596448,6.6291568]},"geometry_name":"geom","properties":{"state_code":"LA","source":"GRID","name":"Agriculture Youth Empowerment Scheme","type":"Commercial","power_source":null,"category":"Mixed Farm","ward_code":"LASEPE15","processing_facility":null,"global_id":"384135d0-158a-4df9-9a52-63be7ab2fe43"}},{"type":"Feature","id":"u_fc_poi_farm.9847","geometry":{"type":"Point","coordinates":[3.9760041,6.6568869]},"geometry_name":"geom","properties":{"state_code":"LA","source":"GRID","name":"Food Crop Farm Agodo Oriyanrin Road 2","type":"Commercial","power_source":null,"category":"Mixed Farm","ward_code":"LASEPE15","processing_facility":null,"global_id":"3843d3e9-5228-4cd3-aae4-bda13a441350"}},{"type":"Feature","id":"u_fc_poi_farm.9854","geometry":{"type":"Point","coordinates":[3.7484696,6.6755239]},"geometry_name":"geom","properties":{"state_code":"LA","source":"GRID","name":"Cassava Farm","type":"Commercial","power_source":null,"category":"Crop Farm","ward_code":"LASEPE05","processing_facility":null,"global_id":"3849a22d-3ebd-4fe2-9866-ee6b52b9e29f"}},{"type":"Feature","id":"u_fc_poi_farm.9868","geometry":{"type":"Point","coordinates":[2.93897,6.50942]},"geometry_name":"geom","properties":{"state_code":"LA","source":"GRID","name":"Animal Farm","type":"Subsistence","power_source":null,"category":"Animal Farm","ward_code":"LASBDY14","processing_facility":null,"global_id":"385af4bb-d20c-4758-b17d-2d96f0ec4333"}},{"type":"Feature","id":"u_fc_poi_farm.10044","geometry":{"type":"Point","coordinates":[2.79494,6.38969]},"geometry_name":"geom","properties":{"state_code":"LA","source":"GRID","name":"Food Crop Farm 3","type":"Both","power_source":null,"category":"Crop Farm","ward_code":"LASBDY05","processing_facility":null,"global_id":"39745801-2537-4623-8f25-e73f01e05325"}},{"type":"Feature","id":"u_fc_poi_farm.10061","geometry":{"type":"Point","coordinates":[3.6089327,6.674196]},"geometry_name":"geom","properties":{"state_code":"LA","source":"GRID","name":"Cassava Farm 10","type":"Commercial","power_source":null,"category":"Crop Farm","ward_code":"LASIKU18","processing_facility":null,"global_id":"3991a3f7-d0ab-494b-b76e-95e7b4a82c35"}},{"type":"Feature","id":"u_fc_poi_farm.10083","geometry":{"type":"Point","coordinates":[3.1977,6.4709233]},"geometry_name":"geom","properties":{"state_code":"LA","source":"GRID","name":"Zoological Garden 2","type":"Commercial","power_source":null,"category":"Crop Farm","ward_code":"LASOJO05","processing_facility":null,"global_id":"39b59802-f5df-462e-ad01-985bfe342af7"}},{"type":"Feature","id":"u_fc_poi_farm.10106","geometry":{"type":"Point","coordinates":[2.94985,6.49377]},"geometry_name":"geom","properties":{"state_code":"LA","source":"GRID","name":"Food Crop Farm 2","type":"Both","power_source":null,"category":"Crop Farm","ward_code":"LASBDY14","processing_facility":null,"global_id":"39de5582-de10-44bf-8880-3391f7e50ffa"}},{"type":"Feature","id":"u_fc_poi_farm.10163","geometry":{"type":"Point","coordinates":[2.7910883,6.4234787]},"geometry_name":"geom","properties":{"state_code":"LA","source":"GRID","name":"Food Crop Farm 3","type":"Both","power_source":null,"category":"Unknown","ward_code":"LASBDY06","processing_facility":null,"global_id":"3a227a0f-d8cd-45cb-977d-f93780df3870"}},{"type":"Feature","id":"u_fc_poi_farm.10246","geometry":{"type":"Point","coordinates":[3.6733908,6.6568633]},"geometry_name":"geom","properties":{"state_code":"LA","source":"GRID","name":"Shadeko Farm","type":"Both","power_source":null,"category":"Crop Farm","ward_code":"LASIKU14","processing_facility":null,"global_id":"3aa69a4e-ed90-4bc0-ac4b-7ba907bb368e"}},{"type":"Feature","id":"u_fc_poi_farm.10392","geometry":{"type":"Point","coordinates":[3.9169,6.66383]},"geometry_name":"geom","properties":{"state_code":"LA","source":"GRID","name":"Asd Farm","type":"Commercial","power_source":null,"category":"Animal Farm","ward_code":"LASEPE09","processing_facility":null,"global_id":"3b89a736-bfc2-44d3-bd9c-bde48268b89a"}},{"type":"Feature","id":"u_fc_poi_farm.10431","geometry":{"type":"Point","coordinates":[3.618033,6.6176496]},"geometry_name":"geom","properties":{"state_code":"LA","source":"GRID","name":"Francis Kanayo Farm","type":"Both","power_source":null,"category":"Crop Farm","ward_code":"LASIKU07","processing_facility":null,"global_id":"3bc922ec-4962-4c9d-be9f-ab21b866cf5b"}},{"type":"Feature","id":"u_fc_poi_farm.10453","geometry":{"type":"Point","coordinates":[3.53124,6.6527]},"geometry_name":"geom","properties":{"state_code":"LA","source":"GRID","name":"Oguntade Farm","type":"Both","power_source":null,"category":"Crop Farm","ward_code":"LASIKU03","processing_facility":null,"global_id":"3bf735d0-50d2-465f-90ff-08e068d2c875"}},{"type":"Feature","id":"u_fc_poi_farm.10501","geometry":{"type":"Point","coordinates":[3.55877,6.67429]},"geometry_name":"geom","properties":{"state_code":"LA","source":"GRID","name":"Food Crop Farm 4","type":"Both","power_source":null,"category":"Mixed Farm","ward_code":"LASIKU12","processing_facility":null,"global_id":"3c3b8f13-1cac-42c5-8b2d-8c744000d46b"}},{"type":"Feature","id":"u_fc_poi_farm.10521","geometry":{"type":"Point","coordinates":[2.8206416,6.425009]},"geometry_name":"geom","properties":{"state_code":"LA","source":"GRID","name":"Iroko Farm","type":"Subsistence","power_source":null,"category":"Crop Farm","ward_code":"LASBDY06","processing_facility":null,"global_id":"3c5a4f93-685a-4772-bdee-be626f908492"}},{"type":"Feature","id":"u_fc_poi_farm.10548","geometry":{"type":"Point","coordinates":[4.0065558,6.5206725]},"geometry_name":"geom","properties":{"state_code":"LA","source":"GRID","name":"Food Crop Farm 57","type":"Commercial","power_source":null,"category":"Crop Farm","ward_code":"LASEPE16","processing_facility":null,"global_id":"3c90c892-69bc-4794-8ffd-f78f787ae67e"}},{"type":"Feature","id":"u_fc_poi_farm.10557","geometry":{"type":"Point","coordinates":[3.9892162,6.6548241]},"geometry_name":"geom","properties":{"state_code":"LA","source":"GRID","name":"Que Fish Farm","type":"Commercial","power_source":null,"category":"Animal Farm","ward_code":"LASEPE13","processing_facility":null,"global_id":"3c99b799-95a6-47ce-b90f-e95ee4c13b36"}},{"type":"Feature","id":"u_fc_poi_farm.10580","geometry":{"type":"Point","coordinates":[3.92072,6.57465]},"geometry_name":"geom","properties":{"state_code":"LA","source":"GRID","name":"Afero Farm 3","type":"Both","power_source":null,"category":"Unknown","ward_code":"LASEPE16","processing_facility":null,"global_id":"3cc4f684-8a1f-4003-80f1-86b734ff439d"}},{"type":"Feature","id":"u_fc_poi_farm.10642","geometry":{"type":"Point","coordinates":[3.8520597,6.5864198]},"geometry_name":"geom","properties":{"state_code":"LA","source":"GRID","name":"Food Crop Farm 31","type":"Commercial","power_source":null,"category":"Crop Farm","ward_code":"LASEPE12","processing_facility":null,"global_id":"3d319e84-1843-430a-97a0-7349c7d932af"}},{"type":"Feature","id":"u_fc_poi_farm.10716","geometry":{"type":"Point","coordinates":[3.67008,6.63797]},"geometry_name":"geom","properties":{"state_code":"LA","source":"GRID","name":"Food Crop Farm","type":"Both","power_source":null,"category":"Unknown","ward_code":"LASIKU21","processing_facility":null,"global_id":"3daa3f87-c3cb-4345-948b-907ad0abfe15"}},{"type":"Feature","id":"u_fc_poi_farm.10731","geometry":{"type":"Point","coordinates":[3.7606386,6.4349579]},"geometry_name":"geom","properties":{"state_code":"LA","source":"GRID","name":"Redeem Church Farm","type":"Subsistence","power_source":null,"category":"Crop Farm","ward_code":"LASIUI05","processing_facility":null,"global_id":"3dbf4ca1-6934-45e4-99a1-e52364365409"}},{"type":"Feature","id":"u_fc_poi_farm.10745","geometry":{"type":"Point","coordinates":[3.9478958,6.5840826]},"geometry_name":"geom","properties":{"state_code":"LA","source":"GRID","name":"Food Crop Farm 76","type":"Commercial","power_source":null,"category":"Crop Farm","ward_code":"LASEPE09","processing_facility":null,"global_id":"3dcec77e-cb0b-4022-bc90-777737eab338"}},{"type":"Feature","id":"u_fc_poi_farm.10813","geometry":{"type":"Point","coordinates":[3.8256532,6.6475612]},"geometry_name":"geom","properties":{"state_code":"LA","source":"GRID","name":"Maseju Farm","type":"Both","power_source":null,"category":"Crop Farm","ward_code":"LASEPE09","processing_facility":null,"global_id":"3e33ec28-6bdd-4653-afdb-349e6aae29a5"}},{"type":"Feature","id":"u_fc_poi_farm.10847","geometry":{"type":"Point","coordinates":[3.61154,6.66727]},"geometry_name":"geom","properties":{"state_code":"LA","source":"GRID","name":"Maize And Casava Farm 4","type":"Commercial","power_source":null,"category":"Crop Farm","ward_code":"LASIKU18","processing_facility":null,"global_id":"3e69258b-94c1-42d7-b8ad-55be3f3a6e75"}},{"type":"Feature","id":"u_fc_poi_farm.10860","geometry":{"type":"Point","coordinates":[3.977711,6.6571242]},"geometry_name":"geom","properties":{"state_code":"LA","source":"GRID","name":"Food Crop Farm Agodo Oriyanrin Road 1","type":"Both","power_source":null,"category":"Crop Farm","ward_code":"LASEPE15","processing_facility":null,"global_id":"3e7d269b-f87e-4b12-8dd8-e5188123862d"}},{"type":"Feature","id":"u_fc_poi_farm.10884","geometry":{"type":"Point","coordinates":[3.5721366,6.6467017]},"geometry_name":"geom","properties":{"state_code":"LA","source":"GRID","name":"Food Crop Farm 6","type":"Subsistence","power_source":null,"category":"Crop Farm","ward_code":"LASIKU04","processing_facility":null,"global_id":"3e99b1fc-98e0-4d8c-bbf7-b2b1d0f9c3ec"}},{"type":"Feature","id":"u_fc_poi_farm.10886","geometry":{"type":"Point","coordinates":[3.6370877,6.6075718]},"geometry_name":"geom","properties":{"state_code":"LA","source":"GRID","name":"Pig Breeding Centre","type":"Commercial","power_source":null,"category":"Animal Farm","ward_code":"LASIKU30","processing_facility":null,"global_id":"3ea1f7ca-3ff1-4e56-8728-db0b6b3d99ba"}},{"type":"Feature","id":"u_fc_poi_farm.10956","geometry":{"type":"Point","coordinates":[2.8751336,6.4347641]},"geometry_name":"geom","properties":{"state_code":"LA","source":"GRID","name":"Taolobe Farm","type":"Commercial","power_source":null,"category":"Mixed Farm","ward_code":"LASBDY02","processing_facility":null,"global_id":"3f03f849-4210-4a6e-8b64-e7961a6938eb"}},{"type":"Feature","id":"u_fc_poi_farm.10978","geometry":{"type":"Point","coordinates":[3.7448051,6.6253725]},"geometry_name":"geom","properties":{"state_code":"LA","source":"GRID","name":"Tinwot Farm","type":"Both","power_source":null,"category":"Mixed Farm","ward_code":"LASEPE05","processing_facility":null,"global_id":"3f24d600-e906-4b1f-9a7b-10de80669f37"}},{"type":"Feature","id":"u_fc_poi_farm.11071","geometry":{"type":"Point","coordinates":[3.5709346,6.6750981]},"geometry_name":"geom","properties":{"state_code":"LA","source":"GRID","name":"Food Crop Farm 9","type":"Both","power_source":null,"category":"Mixed Farm","ward_code":"LASIKU12","processing_facility":null,"global_id":"3fb9dac5-43d6-4078-b69c-e7c960c23b4b"}},{"type":"Feature","id":"u_fc_poi_farm.11149","geometry":{"type":"Point","coordinates":[3.7449747,6.677912]},"geometry_name":"geom","properties":{"state_code":"LA","source":"GRID","name":"Food Crop Farm 7","type":"Commercial","power_source":null,"category":"Crop Farm","ward_code":"LASEPE05","processing_facility":null,"global_id":"401ab1e0-ec41-4d8a-81dc-d200737fa935"}},{"type":"Feature","id":"u_fc_poi_farm.11224","geometry":{"type":"Point","coordinates":[3.6690205,6.65302]},"geometry_name":"geom","properties":{"state_code":"LA","source":"GRID","name":"Casava Farm","type":"Commercial","power_source":null,"category":"Crop Farm","ward_code":"LASIKU14","processing_facility":null,"global_id":"408f85b1-14fc-4100-8ba4-7374cf8964b9"}},{"type":"Feature","id":"u_fc_poi_farm.11266","geometry":{"type":"Point","coordinates":[3.7559812,6.4899645]},"geometry_name":"geom","properties":{"state_code":"LA","source":"GRID","name":"Oloro Farm","type":"Subsistence","power_source":null,"category":"Crop Farm","ward_code":"LASIUI05","processing_facility":null,"global_id":"40c9130d-5710-44ca-a69f-817654e0c284"}},{"type":"Feature","id":"u_fc_poi_farm.11267","geometry":{"type":"Point","coordinates":[3.670265,6.641545]},"geometry_name":"geom","properties":{"state_code":"LA","source":"GRID","name":"Maize Farm","type":"Commercial","power_source":null,"category":"Crop Farm","ward_code":"LASIKU14","processing_facility":null,"global_id":"40c96ac0-f463-4589-b8d6-3260df9cdc26"}},{"type":"Feature","id":"u_fc_poi_farm.11286","geometry":{"type":"Point","coordinates":[3.2055541,6.465061]},"geometry_name":"geom","properties":{"state_code":"LA","source":"GRID","name":"Onions Plantation Farm Iyana Oba Bus Stop","type":"Commercial","power_source":null,"category":"Crop Farm","ward_code":"LASOJO08","processing_facility":null,"global_id":"40eee4df-9ae5-4f6f-80dc-3e27cd710d2c"}},{"type":"Feature","id":"u_fc_poi_farm.11347","geometry":{"type":"Point","coordinates":[3.97029,6.48429]},"geometry_name":"geom","properties":{"state_code":"LA","source":"GRID","name":"Cassava Farm 2","type":"Commercial","power_source":null,"category":"Crop Farm","ward_code":"LASIUI07","processing_facility":null,"global_id":"414e6838-96df-43bb-9177-8768e7cd8287"}},{"type":"Feature","id":"u_fc_poi_farm.11352","geometry":{"type":"Point","coordinates":[2.8672881,6.4350412]},"geometry_name":"geom","properties":{"state_code":"LA","source":"GRID","name":"Lay Lad Farm","type":"Commercial","power_source":null,"category":"Crop Farm","ward_code":"LASBDY02","processing_facility":null,"global_id":"4156f083-de44-4ac9-af8f-44281dd25cf1"}},{"type":"Feature","id":"u_fc_poi_farm.11442","geometry":{"type":"Point","coordinates":[3.5483783,6.6551845]},"geometry_name":"geom","properties":{"state_code":"LA","source":"GRID","name":"Bamgbelu Farm","type":"Both","power_source":null,"category":"Crop Farm","ward_code":"LASIKU03","processing_facility":null,"global_id":"41f5778e-5b75-4e60-9f9b-faeba8babaf7"}},{"type":"Feature","id":"u_fc_poi_farm.11447","geometry":{"type":"Point","coordinates":[3.9994618,6.615258]},"geometry_name":"geom","properties":{"state_code":"LA","source":"GRID","name":"Food Crop Farm 8","type":"Both","power_source":null,"category":"Crop Farm","ward_code":"LASEPE14","processing_facility":null,"global_id":"42005054-8dcb-45bc-80c5-9db731290493"}},{"type":"Feature","id":"u_fc_poi_farm.11494","geometry":{"type":"Point","coordinates":[3.2712727,6.5859861]},"geometry_name":"geom","properties":{"state_code":"LA","source":"GRID","name":"Akuro Farm","type":"Commercial","power_source":null,"category":"Crop Farm","ward_code":"LASAMO28","processing_facility":null,"global_id":"4237a755-6557-4574-ab97-f2c89e15ecb1"}},{"type":"Feature","id":"u_fc_poi_farm.11557","geometry":{"type":"Point","coordinates":[3.8375604,6.64772]},"geometry_name":"geom","properties":{"state_code":"LA","source":"GRID","name":"Old Lagos Road Farm 2","type":"Both","power_source":null,"category":"Crop Farm","ward_code":"LASEPE09","processing_facility":null,"global_id":"42931017-a344-484c-9687-0590ace13cc9"}},{"type":"Feature","id":"u_fc_poi_farm.11651","geometry":{"type":"Point","coordinates":[3.9890523,6.6552561]},"geometry_name":"geom","properties":{"state_code":"LA","source":"GRID","name":"Food Crop Farm 76","type":"Commercial","power_source":null,"category":"Crop Farm","ward_code":"LASEPE13","processing_facility":null,"global_id":"43277e6d-9826-4b65-9166-767452d2535b"}},{"type":"Feature","id":"u_fc_poi_farm.11694","geometry":{"type":"Point","coordinates":[3.232896,6.5789756]},"geometry_name":"geom","properties":{"state_code":"LA","source":"GRID","name":"Food Crop Farm Ade Alabi Street","type":"Commercial","power_source":null,"category":"Crop Farm","ward_code":"LASAMO15","processing_facility":null,"global_id":"435a5779-1967-45c5-a17f-0487790f0ebf"}},{"type":"Feature","id":"u_fc_poi_farm.11783","geometry":{"type":"Point","coordinates":[3.8043846,6.5897579]},"geometry_name":"geom","properties":{"state_code":"LA","source":"GRID","name":"Food Crop Farm Oriba Road","type":"Both","power_source":null,"category":"Crop Farm","ward_code":"LASEPE12","processing_facility":null,"global_id":"43e10ae1-671b-4a8b-8cd2-040ed3cb9dec"}},{"type":"Feature","id":"u_fc_poi_farm.11790","geometry":{"type":"Point","coordinates":[3.9971037,6.6511681]},"geometry_name":"geom","properties":{"state_code":"LA","source":"GRID","name":"Cereal Vegetables And Tuber Farm","type":"Subsistence","power_source":null,"category":"Crop Farm","ward_code":"LASEPE08","processing_facility":null,"global_id":"43e810b0-b292-43f5-badd-515452fabc7c"}},{"type":"Feature","id":"u_fc_poi_farm.11840","geometry":{"type":"Point","coordinates":[4.006912,6.5940518]},"geometry_name":"geom","properties":{"state_code":"LA","source":"GRID","name":"Ile Efun Farm 1","type":"Subsistence","power_source":null,"category":"Crop Farm","ward_code":"LASEPE11","processing_facility":null,"global_id":"4438e898-1bdd-42c6-90a7-b988a6ac085a"}},{"type":"Feature","id":"u_fc_poi_farm.11884","geometry":{"type":"Point","coordinates":[3.9880272,6.6546314]},"geometry_name":"geom","properties":{"state_code":"LA","source":"GRID","name":"Fowlers Farm","type":"Commercial","power_source":null,"category":"Crop Farm","ward_code":"LASEPE15","processing_facility":null,"global_id":"4477cae2-2208-4a9d-9c1a-292109f95f1f"}},{"type":"Feature","id":"u_fc_poi_farm.11977","geometry":{"type":"Point","coordinates":[3.1076712,6.4597164]},"geometry_name":"geom","properties":{"state_code":"LA","source":"GRID","name":"Food Crop Farm 1","type":"Both","power_source":null,"category":"Crop Farm","ward_code":"LASOJO03","processing_facility":null,"global_id":"451171d9-29de-47ff-a4f7-4c14e7c5faa6"}},{"type":"Feature","id":"u_fc_poi_farm.12050","geometry":{"type":"Point","coordinates":[3.6570346,6.6780429]},"geometry_name":"geom","properties":{"state_code":"LA","source":"GRID","name":"Cassava Farm","type":"Commercial","power_source":null,"category":"Crop Farm","ward_code":"LASIKU18","processing_facility":null,"global_id":"45879624-3e05-423f-b4d0-26eb65cd415b"}},{"type":"Feature","id":"u_fc_poi_farm.12055","geometry":{"type":"Point","coordinates":[3.1516904,6.4942624]},"geometry_name":"geom","properties":{"state_code":"LA","source":"GRID","name":"Cassava Farm Dss Quarter Lagos Badagry Express Road Lagos","type":"Commercial","power_source":null,"category":"Crop Farm","ward_code":"LASOJO06","processing_facility":null,"global_id":"458cd1ba-353f-42cf-baa5-fd5277379e54"}},{"type":"Feature","id":"u_fc_poi_farm.12071","geometry":{"type":"Point","coordinates":[3.6585775,6.6175448]},"geometry_name":"geom","properties":{"state_code":"LA","source":"GRID","name":"Food Crop Farm 12","type":"Both","power_source":null,"category":"Crop Farm","ward_code":"LASIKU21","processing_facility":null,"global_id":"459dafbd-a4e8-4fac-a2a6-9d3890249ba7"}},{"type":"Feature","id":"u_fc_poi_farm.12085","geometry":{"type":"Point","coordinates":[3.63783,6.61101]},"geometry_name":"geom","properties":{"state_code":"LA","source":"GRID","name":"Harmony Farm","type":"Both","power_source":null,"category":"Crop Farm","ward_code":"LASIKU07","processing_facility":null,"global_id":"45ac075f-ff87-4f48-9203-3f570970e407"}},{"type":"Feature","id":"u_fc_poi_farm.12183","geometry":{"type":"Point","coordinates":[2.9644083,6.4415493]},"geometry_name":"geom","properties":{"state_code":"LA","source":"GRID","name":"Amuda Street Farm","type":"Subsistence","power_source":null,"category":"Crop Farm","ward_code":"LASBDY07","processing_facility":null,"global_id":"463942b3-084d-4346-ad20-b5abe4040c62"}},{"type":"Feature","id":"u_fc_poi_farm.12232","geometry":{"type":"Point","coordinates":[3.7403589,6.6750072]},"geometry_name":"geom","properties":{"state_code":"LA","source":"GRID","name":"Food Crop Farm Beach Road 7","type":"Both","power_source":null,"category":"Crop Farm","ward_code":"LASEPE05","processing_facility":null,"global_id":"4681b0b3-ebc6-405f-ae75-d9f1a1046fe9"}},{"type":"Feature","id":"u_fc_poi_farm.12335","geometry":{"type":"Point","coordinates":[3.9914566,6.6473839]},"geometry_name":"geom","properties":{"state_code":"LA","source":"GRID","name":"Food Crop Farm Nojimu Avenue 1","type":"Both","power_source":null,"category":"Crop Farm","ward_code":"LASEPE08","processing_facility":null,"global_id":"471ffb9d-6a19-4e90-8950-32787274ffe4"}},{"type":"Feature","id":"u_fc_poi_farm.12417","geometry":{"type":"Point","coordinates":[4.04273,6.67353]},"geometry_name":"geom","properties":{"state_code":"LA","source":"GRID","name":"Food Crop Farm 2","type":"Commercial","power_source":null,"category":"Crop Farm","ward_code":"LASEPE10","processing_facility":null,"global_id":"479e53f3-7d91-41c1-aef3-523975a8c7dc"}},{"type":"Feature","id":"u_fc_poi_farm.12426","geometry":{"type":"Point","coordinates":[3.6591,6.67802]},"geometry_name":"geom","properties":{"state_code":"LA","source":"GRID","name":"Ugwu Farm 2","type":"Both","power_source":null,"category":"Crop Farm","ward_code":"LASIKU18","processing_facility":null,"global_id":"47a4f805-4301-442a-94ae-2d88b252afeb"}},{"type":"Feature","id":"u_fc_poi_farm.12499","geometry":{"type":"Point","coordinates":[4.0408065,6.6733895]},"geometry_name":"geom","properties":{"state_code":"LA","source":"GRID","name":"Food Crop Farm 4","type":"Subsistence","power_source":null,"category":"Crop Farm","ward_code":"LASEPE10","processing_facility":null,"global_id":"480e4e87-2300-4e55-92b8-4ce2bb5b0a21"}},{"type":"Feature","id":"u_fc_poi_farm.12512","geometry":{"type":"Point","coordinates":[3.5946123,6.6782372]},"geometry_name":"geom","properties":{"state_code":"LA","source":"GRID","name":"Iya Meta Farm","type":"Commercial","power_source":null,"category":"Crop Farm","ward_code":"LASIKU27","processing_facility":null,"global_id":"482e8bf5-1f59-4a52-a47b-2fca535ee5a2"}},{"type":"Feature","id":"u_fc_poi_farm.12615","geometry":{"type":"Point","coordinates":[3.4983308,6.5625467]},"geometry_name":"geom","properties":{"state_code":"LA","source":"GRID","name":"Olusegun Fadare Farm","type":"Subsistence","power_source":null,"category":"Crop Farm","ward_code":"LASIKU01","processing_facility":null,"global_id":"48d24542-d423-45f6-9fcb-9fc9883c9198"}},{"type":"Feature","id":"u_fc_poi_farm.12618","geometry":{"type":"Point","coordinates":[3.1456689,6.4177815]},"geometry_name":"geom","properties":{"state_code":"LA","source":"GRID","name":"Cassava Farm Irewe","type":"Subsistence","power_source":null,"category":"Crop Farm","ward_code":"LASOJO09","processing_facility":null,"global_id":"48d43cb3-35d4-4866-91dc-de48fe63f4d5"}},{"type":"Feature","id":"u_fc_poi_farm.12657","geometry":{"type":"Point","coordinates":[3.10071,6.4593]},"geometry_name":"geom","properties":{"state_code":"LA","source":"GRID","name":"Issac Asade Farm Orisha","type":"Subsistence","power_source":null,"category":"Crop Farm","ward_code":"LASOJO03","processing_facility":null,"global_id":"48fcdc10-2528-48f1-a186-5e4cc2f94afa"}},{"type":"Feature","id":"u_fc_poi_farm.12671","geometry":{"type":"Point","coordinates":[3.54746,6.56997]},"geometry_name":"geom","properties":{"state_code":"LA","source":"GRID","name":"Ayinye Farm","type":"Subsistence","power_source":null,"category":"Crop Farm","ward_code":"LASIKU01","processing_facility":null,"global_id":"4915cff3-26de-4861-a56d-230c9a956112"}},{"type":"Feature","id":"u_fc_poi_farm.12684","geometry":{"type":"Point","coordinates":[2.8684596,6.4330577]},"geometry_name":"geom","properties":{"state_code":"LA","source":"GRID","name":"Cassava Farm 2","type":"Subsistence","power_source":null,"category":"Crop Farm","ward_code":"LASBDY02","processing_facility":null,"global_id":"49297477-0118-4568-8cb2-6c2cb4d3c5dc"}},{"type":"Feature","id":"u_fc_poi_farm.12857","geometry":{"type":"Point","coordinates":[3.2003499,6.4705555]},"geometry_name":"geom","properties":{"state_code":"LA","source":"GRID","name":"Department Of Fisheries And Aquaculture Farm","type":"Commercial","power_source":null,"category":"Unknown","ward_code":"LASOJO05","processing_facility":null,"global_id":"49fbd16d-19a9-4838-bf06-6f9ebb85a478"}},{"type":"Feature","id":"u_fc_poi_farm.12860","geometry":{"type":"Point","coordinates":[3.6584389,6.6775174]},"geometry_name":"geom","properties":{"state_code":"LA","source":"GRID","name":"Casava Farm 2","type":"Commercial","power_source":null,"category":"Crop Farm","ward_code":"LASIKU18","processing_facility":null,"global_id":"4a01626d-cdde-4b5c-bf9f-68303d7d3a3d"}},{"type":"Feature","id":"u_fc_poi_farm.12913","geometry":{"type":"Point","coordinates":[3.5682303,6.6667421]},"geometry_name":"geom","properties":{"state_code":"LA","source":"GRID","name":"Food Crop Farm 5","type":"Commercial","power_source":null,"category":"Unknown","ward_code":"LASIKU12","processing_facility":null,"global_id":"4a44286d-906e-4475-9c39-84eca530b07e"}},{"type":"Feature","id":"u_fc_poi_farm.12930","geometry":{"type":"Point","coordinates":[3.8993557,6.5397729]},"geometry_name":"geom","properties":{"state_code":"LA","source":"GRID","name":"Food Crop Farm 39","type":"Commercial","power_source":null,"category":"Animal Farm","ward_code":"LASEPE16","processing_facility":null,"global_id":"4a5fd144-878f-4ffb-bc6b-c0ff62c941dc"}},{"type":"Feature","id":"u_fc_poi_farm.12951","geometry":{"type":"Point","coordinates":[3.1568871,6.4803271]},"geometry_name":"geom","properties":{"state_code":"LA","source":"GRID","name":"Adaloko Farm","type":"Subsistence","power_source":null,"category":"Crop Farm","ward_code":"LASOJO01","processing_facility":null,"global_id":"4a8a3452-f809-4f6a-a52c-6ec52116ef04"}},{"type":"Feature","id":"u_fc_poi_farm.12967","geometry":{"type":"Point","coordinates":[3.2295295,6.5807789]},"geometry_name":"geom","properties":{"state_code":"LA","source":"GRID","name":"Food Crop Farm 66","type":"Commercial","power_source":null,"category":"Crop Farm","ward_code":"LASAMO15","processing_facility":null,"global_id":"4a92bd5a-d8b0-42b4-8ec9-66ef52eb2952"}},{"type":"Feature","id":"u_fc_poi_farm.13008","geometry":{"type":"Point","coordinates":[3.7280243,6.6792092]},"geometry_name":"geom","properties":{"state_code":"LA","source":"GRID","name":"Food Crop Farm Odo Ayandelu Road 5","type":"Both","power_source":null,"category":"Crop Farm","ward_code":"LASEPE05","processing_facility":null,"global_id":"4ac7256c-7576-486e-9a5c-39db97b713f2"}},{"type":"Feature","id":"u_fc_poi_farm.13014","geometry":{"type":"Point","coordinates":[2.9289611,6.4401886]},"geometry_name":"geom","properties":{"state_code":"LA","source":"GRID","name":"Adedebe Farm","type":"Commercial","power_source":null,"category":"Animal Farm","ward_code":"LASBDY04","processing_facility":null,"global_id":"4ad3c90c-f53c-40a9-bd28-ffce2deca0a8"}},{"type":"Feature","id":"u_fc_poi_farm.13142","geometry":{"type":"Point","coordinates":[3.2462073,6.6387908]},"geometry_name":"geom","properties":{"state_code":"LA","source":"GRID","name":"Food Crop Farm","type":"Commercial","power_source":null,"category":"Crop Farm","ward_code":"LASAMO07","processing_facility":null,"global_id":"4b807f3f-3046-42fb-b1c3-703ba23c5445"}},{"type":"Feature","id":"u_fc_poi_farm.13187","geometry":{"type":"Point","coordinates":[3.5763447,6.6732573]},"geometry_name":"geom","properties":{"state_code":"LA","source":"GRID","name":"Ajayi Farm","type":"Both","power_source":null,"category":"Crop Farm","ward_code":"LASIKU12","processing_facility":null,"global_id":"4bc2ce97-0b74-4fca-bcf0-12749585ca45"}},{"type":"Feature","id":"u_fc_poi_farm.13216","geometry":{"type":"Point","coordinates":[3.5845059,6.6292539]},"geometry_name":"geom","properties":{"state_code":"LA","source":"GRID","name":"Love Avenue Farm","type":"Both","power_source":null,"category":"Crop Farm","ward_code":"LASIKU04","processing_facility":null,"global_id":"4bed9220-a398-49fb-9a52-cf92e9b2bdf9"}},{"type":"Feature","id":"u_fc_poi_farm.13374","geometry":{"type":"Point","coordinates":[3.7311965,6.6765481]},"geometry_name":"geom","properties":{"state_code":"LA","source":"GRID","name":"Food Crop Farm Oke Igbeyin Road 5","type":"Both","power_source":null,"category":"Crop Farm","ward_code":"LASEPE05","processing_facility":null,"global_id":"4cc8b318-6ea9-4e0d-bc63-4f48014834d3"}},{"type":"Feature","id":"u_fc_poi_farm.13403","geometry":{"type":"Point","coordinates":[4.00081,6.61411]},"geometry_name":"geom","properties":{"state_code":"LA","source":"GRID","name":"Food Crop Farm 25","type":"Both","power_source":null,"category":"Crop Farm","ward_code":"LASEPE11","processing_facility":null,"global_id":"4cf6869b-3e6d-499f-b4ca-746cf8839916"}},{"type":"Feature","id":"u_fc_poi_farm.13487","geometry":{"type":"Point","coordinates":[2.9156721,6.4134704]},"geometry_name":"geom","properties":{"state_code":"LA","source":"GRID","name":"Maize Plantation 3","type":"Commercial","power_source":null,"category":"Crop Farm","ward_code":"LASBDY12","processing_facility":null,"global_id":"4d6985ba-2e3e-48f0-9b74-1cb154af8d0a"}},{"type":"Feature","id":"u_fc_poi_farm.13524","geometry":{"type":"Point","coordinates":[3.37204,6.49763]},"geometry_name":"geom","properties":{"state_code":"LA","source":"GRID","name":"Ebutte Metta Nrh Farm Awolowo Road","type":"Commercial","power_source":null,"category":"Crop Farm","ward_code":"LASLMD11","processing_facility":null,"global_id":"4d9dfe22-afad-4330-9780-34fbd3aa9c67"}},{"type":"Feature","id":"u_fc_poi_farm.13526","geometry":{"type":"Point","coordinates":[3.9002437,6.5362995]},"geometry_name":"geom","properties":{"state_code":"LA","source":"GRID","name":"Food Crop Farm Lekki Epe Express Road 1","type":"Commercial","power_source":null,"category":"Crop Farm","ward_code":"LASEPE16","processing_facility":null,"global_id":"4da05c8f-bf6f-4933-a41a-72d16057d4d6"}},{"type":"Feature","id":"u_fc_poi_farm.13556","geometry":{"type":"Point","coordinates":[3.5140751,6.5677705]},"geometry_name":"geom","properties":{"state_code":"LA","source":"GRID","name":"Adedeji Farm","type":"Commercial","power_source":null,"category":"Crop Farm","ward_code":"LASIKU01","processing_facility":null,"global_id":"4dc52ce4-76d5-457b-bd20-60e96f730216"}},{"type":"Feature","id":"u_fc_poi_farm.13559","geometry":{"type":"Point","coordinates":[3.7263971,6.6597987]},"geometry_name":"geom","properties":{"state_code":"LA","source":"GRID","name":"Oba Akinlolu Farm","type":"Commercial","power_source":null,"category":"Crop Farm","ward_code":"LASEPE05","processing_facility":null,"global_id":"4dcb3a7d-824f-4754-8088-2620b4a1e87c"}},{"type":"Feature","id":"u_fc_poi_farm.13644","geometry":{"type":"Point","coordinates":[3.73722,6.67221]},