{"type":"FeatureCollection","features":[{"type":"Feature","id":"u_fc_poi_mosque.10","geometry":{"type":"Point","coordinates":[3.3409,6.58163]},"geometry_name":"geom","properties":{"state_code":"LA","source":"OSGOF","name":"Ikawo Kolaso Mosque","ward_code":"LASOIO20","poi_type":"Mosque","global_id":"001c1ad2-3c1d-48b0-b67c-1edaa7762841"}},{"type":"Feature","id":"u_fc_poi_mosque.49","geometry":{"type":"Point","coordinates":[3.33473,6.46541]},"geometry_name":"geom","properties":{"state_code":"LA","source":"OSGOF","name":"Ifelodun Mosque Alaba","ward_code":"LASATO06","poi_type":"Mosque","global_id":"009f1fb6-94a2-4c52-b93e-70d6cb329364"}},{"type":"Feature","id":"u_fc_poi_mosque.92","geometry":{"type":"Point","coordinates":[3.31395,6.41676]},"geometry_name":"geom","properties":{"state_code":"LA","source":"OSGOF","name":"Igbo Isu Central Mosque","ward_code":"LASAON09","poi_type":"Mosque","global_id":"011c12f0-ada0-464c-bfd4-9fd4f8f97f76"}},{"type":"Feature","id":"u_fc_poi_mosque.167","geometry":{"type":"Point","coordinates":[3.37999,6.54389]},"geometry_name":"geom","properties":{"state_code":"LA","source":"OSGOF","name":"Maharufdeen Central Mosque","ward_code":"LASSMU06","poi_type":"Mosque","global_id":"0200322e-116d-47f3-970c-fe479b09c7f5"}},{"type":"Feature","id":"u_fc_poi_mosque.168","geometry":{"type":"Point","coordinates":[3.09423,6.40346]},"geometry_name":"geom","properties":{"state_code":"LA","source":"OSGOF","name":"Igbo Oja Nla Central Mosque","ward_code":"LASOJO15","poi_type":"Mosque","global_id":"0202a9e0-be2e-4a81-92ec-ce2caa887823"}},{"type":"Feature","id":"u_fc_poi_mosque.234","geometry":{"type":"Point","coordinates":[3.37464,6.63564]},"geometry_name":"geom","properties":{"state_code":"LA","source":"OSGOF","name":"Olowora Central Mosque","ward_code":"LASKSE12","poi_type":"Mosque","global_id":"02edc3e4-1c7d-4edb-a90f-9babc704e93d"}},{"type":"Feature","id":"u_fc_poi_mosque.249","geometry":{"type":"Point","coordinates":[3.33089,6.55232]},"geometry_name":"geom","properties":{"state_code":"LA","source":"OSGOF","name":"Wulemotu Agbo Central Mosque","ward_code":"LASOIO15","poi_type":"Mosque","global_id":"031c3dbe-5702-4037-8f1e-c880a5aa6dd2"}},{"type":"Feature","id":"u_fc_poi_mosque.352","geometry":{"type":"Point","coordinates":[3.36688,6.52154]},"geometry_name":"geom","properties":{"state_code":"LA","source":"OSGOF","name":"Ansa Ud Deen Mosque","ward_code":"LASMUN02","poi_type":"Mosque","global_id":"045b5a85-63ab-4b94-9fdf-c9e0cf08e64c"}},{"type":"Feature","id":"u_fc_poi_mosque.416","geometry":{"type":"Point","coordinates":[3.34169,6.52637]},"geometry_name":"geom","properties":{"state_code":"LA","source":"OSGOF","name":"Anwarul Islam Central Mosque","ward_code":"LASMUN01","poi_type":"Mosque","global_id":"0506303f-37ca-44fd-8278-1c4f20e13c7f"}},{"type":"Feature","id":"u_fc_poi_mosque.435","geometry":{"type":"Point","coordinates":[3.39497,6.60653]},"geometry_name":"geom","properties":{"state_code":"LA","source":"OSGOF","name":"Erunkan Central Mosque","ward_code":"LASKSE09","poi_type":"Mosque","global_id":"052ccc52-7cec-44be-9803-4ad4a0f5c678"}},{"type":"Feature","id":"u_fc_poi_mosque.455","geometry":{"type":"Point","coordinates":[3.13118,6.40342]},"geometry_name":"geom","properties":{"state_code":"LA","source":"OSGOF","name":"Olomometa Central Mosque","ward_code":"LASOJO15","poi_type":"Mosque","global_id":"057f0c21-bd08-4d6c-90e1-7f53fc8df046"}},{"type":"Feature","id":"u_fc_poi_mosque.494","geometry":{"type":"Point","coordinates":[3.23761,6.41785]},"geometry_name":"geom","properties":{"state_code":"LA","source":"OSGOF","name":"Ikeanabi Mosque","ward_code":"LASAON05","poi_type":"Mosque","global_id":"05f291b0-e0af-42c9-aec1-1534260e4ec8"}},{"type":"Feature","id":"u_fc_poi_mosque.597","geometry":{"type":"Point","coordinates":[3.39773,6.60573]},"geometry_name":"geom","properties":{"state_code":"LA","source":"OSGOF","name":"Aliwo Central Mosque","ward_code":"LASKSE09","poi_type":"Mosque","global_id":"072e08a8-c65e-45bf-9995-fe958d67939d"}},{"type":"Feature","id":"u_fc_poi_mosque.624","geometry":{"type":"Point","coordinates":[3.31822,6.63112]},"geometry_name":"geom","properties":{"state_code":"LA","source":"OSGOF","name":"Amodu Mosque","ward_code":"LASAGG12","poi_type":"Mosque","global_id":"07626ce8-5b9c-4d1a-be94-8109d19d5ed4"}},{"type":"Feature","id":"u_fc_poi_mosque.683","geometry":{"type":"Point","coordinates":[3.71316,6.64336]},"geometry_name":"geom","properties":{"state_code":"LA","source":"OSGOF","name":"Oluwakemi Rotibi Mosque","ward_code":"LASEPE02","poi_type":"Mosque","global_id":"07e6411a-e49e-4e0b-8233-2408c0b54a0b"}},{"type":"Feature","id":"u_fc_poi_mosque.728","geometry":{"type":"Point","coordinates":[3.32629,6.49762]},"geometry_name":"geom","properties":{"state_code":"LA","source":"OSGOF","name":"Ijesha Central Mosque","ward_code":"LASSUE17","poi_type":"Mosque","global_id":"0859a1ab-9001-4b43-aaea-cccfa3ab06db"}},{"type":"Feature","id":"u_fc_poi_mosque.785","geometry":{"type":"Point","coordinates":[3.23407,6.42734]},"geometry_name":"geom","properties":{"state_code":"LA","source":"OSGOF","name":"Irede Central Mosque","ward_code":"LASAON05","poi_type":"Mosque","global_id":"08fda101-5063-43a3-b3f4-74672bdaff01"}},{"type":"Feature","id":"u_fc_poi_mosque.808","geometry":{"type":"Point","coordinates":[3.3352,6.55784]},"geometry_name":"geom","properties":{"state_code":"LA","source":"OSGOF","name":"Ansar Ud Deen Mosque Ogunoloko","ward_code":"LASOIO15","poi_type":"Mosque","global_id":"096f0563-6d43-43ab-b60c-2d3ca793a947"}},{"type":"Feature","id":"u_fc_poi_mosque.911","geometry":{"type":"Point","coordinates":[3.39751,6.61679]},"geometry_name":"geom","properties":{"state_code":"LA","source":"OSGOF","name":"Agiliti Central Mosque","ward_code":"LASKSE21","poi_type":"Mosque","global_id":"0a977fa8-d83a-4500-8574-db42f37ab9a0"}},{"type":"Feature","id":"u_fc_poi_mosque.1102","geometry":{"type":"Point","coordinates":[3.38163,6.45926]},"geometry_name":"geom","properties":{"state_code":"LA","source":"OSGOF","name":"Nawair Ud Deen Central Mosque","ward_code":"LASLID15","poi_type":"Mosque","global_id":"0ccd9935-508e-4f8c-b8f4-28bfebca62c3"}},{"type":"Feature","id":"u_fc_poi_mosque.1104","geometry":{"type":"Point","coordinates":[3.31188,6.62619]},"geometry_name":"geom","properties":{"state_code":"LA","source":"OSGOF","name":"Sherifat Agbede Mosque","ward_code":"LASAGG04","poi_type":"Mosque","global_id":"0cd75f04-6f5c-443c-926a-4ad5a9aa7d05"}},{"type":"Feature","id":"u_fc_poi_mosque.1141","geometry":{"type":"Point","coordinates":[3.36174,6.48832]},"geometry_name":"geom","properties":{"state_code":"LA","source":"OSGOF","name":"Iponri Housing Estate Mosque","ward_code":"LASSUE01","poi_type":"Mosque","global_id":"0d37829f-25f5-48bd-9d5b-717c24df8033"}},{"type":"Feature","id":"u_fc_poi_mosque.1165","geometry":{"type":"Point","coordinates":[3.33388,6.5203]},"geometry_name":"geom","properties":{"state_code":"LA","source":"OSGOF","name":"Idera Oluwa Mosque","ward_code":"LASOIO13","poi_type":"Mosque","global_id":"0d8933dd-ac87-4ab4-bed5-ddb8e7446ae9"}},{"type":"Feature","id":"u_fc_poi_mosque.1166","geometry":{"type":"Point","coordinates":[3.33895,6.47208]},"geometry_name":"geom","properties":{"state_code":"LA","source":"OSGOF","name":"Onilewura Mosque","ward_code":"LASATO11","poi_type":"Mosque","global_id":"0d8e0d4d-212e-4b54-8290-68e940541c32"}},{"type":"Feature","id":"u_fc_poi_mosque.1193","geometry":{"type":"Point","coordinates":[3.39923,6.58737]},"geometry_name":"geom","properties":{"state_code":"LA","source":"OSGOF","name":"Alapere Central Mosque","ward_code":"LASKSE03","poi_type":"Mosque","global_id":"0dd32f05-8c4b-4f47-8eb4-9c0a9106ef70"}},{"type":"Feature","id":"u_fc_poi_mosque.1285","geometry":{"type":"Point","coordinates":[3.25524,6.61074]},"geometry_name":"geom","properties":{"state_code":"LA","source":"OSGOF","name":"Ipaja Central Mosque","ward_code":"LASAMO26","poi_type":"Mosque","global_id":"0f1869f0-7b65-495a-9a8f-0b601032317b"}},{"type":"Feature","id":"u_fc_poi_mosque.1328","geometry":{"type":"Point","coordinates":[3.38759,6.4794]},"geometry_name":"geom","properties":{"state_code":"LA","source":"OSGOF","name":"Owolara Memorial Mosque","ward_code":"LASLMD17","poi_type":"Mosque","global_id":"0fa5edfd-2dde-4216-87cd-6108b95a46aa"}},{"type":"Feature","id":"u_fc_poi_mosque.1356","geometry":{"type":"Point","coordinates":[3.34525,6.46204]},"geometry_name":"geom","properties":{"state_code":"LA","source":"OSGOF","name":"Aiyetoro Mosque","ward_code":"LASATO01","poi_type":"Mosque","global_id":"10043a2e-8979-47c5-9aed-d936a6e82cd5"}},{"type":"Feature","id":"u_fc_poi_mosque.1563","geometry":{"type":"Point","coordinates":[3.3842,6.45844]},"geometry_name":"geom","properties":{"state_code":"LA","source":"OSGOF","name":"Fourah Bay Mosque","ward_code":"LASLID05","poi_type":"Mosque","global_id":"127e1774-3926-4af3-92c4-897b17e8835a"}},{"type":"Feature","id":"u_fc_poi_mosque.1661","geometry":{"type":"Point","coordinates":[3.27866,6.54394]},"geometry_name":"geom","properties":{"state_code":"LA","source":"OSGOF","name":"Egbe Central Mosque","ward_code":"LASAMO18","poi_type":"Mosque","global_id":"138f49d4-304d-45df-8a6c-538866a01a1d"}},{"type":"Feature","id":"u_fc_poi_mosque.1746","geometry":{"type":"Point","coordinates":[3.2813,6.62319]},"geometry_name":"geom","properties":{"state_code":"LA","source":"OSGOF","name":"Aboru Central Mosque","ward_code":"LASAMO04","poi_type":"Mosque","global_id":"148647b6-b729-4f42-a5e0-e679f5b0831a"}},{"type":"Feature","id":"u_fc_poi_mosque.1778","geometry":{"type":"Point","coordinates":[3.32381,6.63567]},"geometry_name":"geom","properties":{"state_code":"LA","source":"OSGOF","name":"Abm Mosque","ward_code":"LASIOE02","poi_type":"Mosque","global_id":"14cd438b-e9e7-417a-88b2-a439e9826220"}},{"type":"Feature","id":"u_fc_poi_mosque.1789","geometry":{"type":"Point","coordinates":[3.17019,6.46314]},"geometry_name":"geom","properties":{"state_code":"LA","source":"OSGOF","name":"Ilemba Hausa Central Mosque","ward_code":"LASOJO14","poi_type":"Mosque","global_id":"14ec88df-9d1c-4dca-9904-d9b0cba509c8"}},{"type":"Feature","id":"u_fc_poi_mosque.1818","geometry":{"type":"Point","coordinates":[3.38857,6.537]},"geometry_name":"geom","properties":{"state_code":"LA","source":"OSGOF","name":"Saitmate Guest House Mosque","ward_code":"LASSMU01","poi_type":"Mosque","global_id":"153f6781-83ca-43b3-80e6-9ec908f74b22"}},{"type":"Feature","id":"u_fc_poi_mosque.1867","geometry":{"type":"Point","coordinates":[3.38012,6.47354]},"geometry_name":"geom","properties":{"state_code":"LA","source":"OSGOF","name":"Opeloyeru Mosque","ward_code":"LASLMD16","poi_type":"Mosque","global_id":"15c23beb-d967-431d-9282-316a95177dd3"}},{"type":"Feature","id":"u_fc_poi_mosque.1907","geometry":{"type":"Point","coordinates":[3.20152,6.41848]},"geometry_name":"geom","properties":{"state_code":"LA","source":"OSGOF","name":"Iyagbe Central Mosque","ward_code":"LASAON05","poi_type":"Mosque","global_id":"163e4d20-5214-4610-8552-315468e3e410"}},{"type":"Feature","id":"u_fc_poi_mosque.1947","geometry":{"type":"Point","coordinates":[3.31825,6.62248]},"geometry_name":"geom","properties":{"state_code":"LA","source":"OSGOF","name":"Hausa Central Mosque Moricas","ward_code":"LASAGG02","poi_type":"Mosque","global_id":"16aeb433-a180-4bc3-985a-cbfd18c47e4b"}},{"type":"Feature","id":"u_fc_poi_mosque.1957","geometry":{"type":"Point","coordinates":[3.78266,6.50281]},"geometry_name":"geom","properties":{"state_code":"LA","source":"OSGOF","name":"Opeloyeru Central Mosque","ward_code":"LASEPE12","poi_type":"Mosque","global_id":"16de0308-9295-44d5-b5fc-25f24e123736"}},{"type":"Feature","id":"u_fc_poi_mosque.1977","geometry":{"type":"Point","coordinates":[3.37702,6.53036]},"geometry_name":"geom","properties":{"state_code":"LA","source":"OSGOF","name":"Ibukum Oluwa Mosque","ward_code":"LASSMU11","poi_type":"Mosque","global_id":"16fe3c96-c617-46b2-a388-78eecaf35b82"}},{"type":"Feature","id":"u_fc_poi_mosque.1999","geometry":{"type":"Point","coordinates":[3.38978,6.46134]},"geometry_name":"geom","properties":{"state_code":"LA","source":"OSGOF","name":"Zumurat Hujat Mosque","ward_code":"LASLID10","poi_type":"Mosque","global_id":"1732bb32-67cd-43c9-9248-a961ee1f3c87"}},{"type":"Feature","id":"u_fc_poi_mosque.2121","geometry":{"type":"Point","coordinates":[3.36392,6.63238]},"geometry_name":"geom","properties":{"state_code":"LA","source":"OSGOF","name":"Omole Mosque","ward_code":"LASIKA02","poi_type":"Mosque","global_id":"18734b53-0af4-4f3c-9542-ec9168d1c656"}},{"type":"Feature","id":"u_fc_poi_mosque.2153","geometry":{"type":"Point","coordinates":[3.10144,6.4051]},"geometry_name":"geom","properties":{"state_code":"LA","source":"OSGOF","name":"Igbooja Kekere S B Central Mosque","ward_code":"LASOJO15","poi_type":"Mosque","global_id":"18d8fad0-2b83-4782-a5cb-7f90252bcbcf"}},{"type":"Feature","id":"u_fc_poi_mosque.2319","geometry":{"type":"Point","coordinates":[3.36136,6.46627]},"geometry_name":"geom","properties":{"state_code":"LA","source":"OSGOF","name":"Ajumoni Central Mosque Badia","ward_code":"LASAPA06","poi_type":"Mosque","global_id":"1ae238f0-eb00-4e7d-bbe9-b68924c822fe"}},{"type":"Feature","id":"u_fc_poi_mosque.2351","geometry":{"type":"Point","coordinates":[3.34177,6.47924]},"geometry_name":"geom","properties":{"state_code":"LA","source":"OSGOF","name":"Temitayo Mosque","ward_code":"LASSUE07","poi_type":"Mosque","global_id":"1b35ebd0-41eb-4d58-9a90-f66c6e3c99e6"}},{"type":"Feature","id":"u_fc_poi_mosque.2421","geometry":{"type":"Point","coordinates":[3.33683,6.56231]},"geometry_name":"geom","properties":{"state_code":"LA","source":"OSGOF","name":"Mafoluku Mosque 1","ward_code":"LASOIO16","poi_type":"Mosque","global_id":"1c1e9244-0bc9-47b8-808d-4cd36aed7fa5"}},{"type":"Feature","id":"u_fc_poi_mosque.2430","geometry":{"type":"Point","coordinates":[3.37944,6.54511]},"geometry_name":"geom","properties":{"state_code":"LA","source":"OSGOF","name":"Alabukun Mosque","ward_code":"LASSMU03","poi_type":"Mosque","global_id":"1c489d16-a489-48eb-ade7-63f8f454be35"}},{"type":"Feature","id":"u_fc_poi_mosque.2444","geometry":{"type":"Point","coordinates":[3.33972,6.4658]},"geometry_name":"geom","properties":{"state_code":"LA","source":"OSGOF","name":"Mosafejo Mosque","ward_code":"LASATO03","poi_type":"Mosque","global_id":"1c6ac95f-b5e0-4570-8092-4dadf651ff0a"}},{"type":"Feature","id":"u_fc_poi_mosque.2463","geometry":{"type":"Point","coordinates":[3.3879,6.49647]},"geometry_name":"geom","properties":{"state_code":"LA","source":"OSGOF","name":"Olaiya Central Mosque","ward_code":"LASLMD12","poi_type":"Mosque","global_id":"1c9a3c37-b69d-442e-80cf-7acb1ff1af96"}},{"type":"Feature","id":"u_fc_poi_mosque.2501","geometry":{"type":"Point","coordinates":[3.34692,6.55892]},"geometry_name":"geom","properties":{"state_code":"LA","source":"OSGOF","name":"Ganikale Sawiat Mosque","ward_code":"LASOIO11","poi_type":"Mosque","global_id":"1d13e756-b418-4515-8d2c-3b7c72c51353"}},{"type":"Feature","id":"u_fc_poi_mosque.2512","geometry":{"type":"Point","coordinates":[3.36505,6.52829]},"geometry_name":"geom","properties":{"state_code":"LA","source":"OSGOF","name":"Soyege Central Mosque","ward_code":"LASMUN10","poi_type":"Mosque","global_id":"1d31f0cf-266e-452b-afdd-4452cb4e0aed"}},{"type":"Feature","id":"u_fc_poi_mosque.2514","geometry":{"type":"Point","coordinates":[3.29204,6.65934]},"geometry_name":"geom","properties":{"state_code":"LA","source":"OSGOF","name":"Sawiya Central Mosque","ward_code":"LASAMO05","poi_type":"Mosque","global_id":"1d380531-d16f-46ca-bfb9-599cf91fa717"}},{"type":"Feature","id":"u_fc_poi_mosque.2583","geometry":{"type":"Point","coordinates":[3.17331,6.46592]},"geometry_name":"geom","properties":{"state_code":"LA","source":"OSGOF","name":"Abule Aka Central Mosque","ward_code":"LASOJO10","poi_type":"Mosque","global_id":"1e0d96fa-c3d3-4d16-a4e1-af4e83efb6a6"}},{"type":"Feature","id":"u_fc_poi_mosque.2637","geometry":{"type":"Point","coordinates":[3.29567,6.53725]},"geometry_name":"geom","properties":{"state_code":"LA","source":"OSGOF","name":"Ansar Ud Deen Mosque Ailegun","ward_code":"LASOIO03","poi_type":"Mosque","global_id":"1ee9a419-7d6b-4009-ab49-58574bc94697"}},{"type":"Feature","id":"u_fc_poi_mosque.2644","geometry":{"type":"Point","coordinates":[3.33937,6.53226]},"geometry_name":"geom","properties":{"state_code":"LA","source":"OSGOF","name":"Adenekan Central Mosque","ward_code":"LASMUN19","poi_type":"Mosque","global_id":"1ef88e92-9a15-4779-a8bf-4770a366ef30"}},{"type":"Feature","id":"u_fc_poi_mosque.2650","geometry":{"type":"Point","coordinates":[3.30953,6.61613]},"geometry_name":"geom","properties":{"state_code":"LA","source":"OSGOF","name":"Aduragba Mosque","ward_code":"LASAGG10","poi_type":"Mosque","global_id":"1f1421b4-71e4-4d64-bc9d-f4bb0a943a1e"}},{"type":"Feature","id":"u_fc_poi_mosque.2655","geometry":{"type":"Point","coordinates":[3.8778,6.63619]},"geometry_name":"geom","properties":{"state_code":"LA","source":"OSGOF","name":"Ketu Central Mosque 3","ward_code":"LASEPE07","poi_type":"Mosque","global_id":"1f23853c-ed49-405a-931b-2ae68121f539"}},{"type":"Feature","id":"u_fc_poi_mosque.2666","geometry":{"type":"Point","coordinates":[3.90669,6.48773]},"geometry_name":"geom","properties":{"state_code":"LA","source":"OSGOF","name":"Iba Oloja Central Mosque","ward_code":"LASIUI01","poi_type":"Mosque","global_id":"1f452056-af16-4e76-a52c-56ed1696d490"}},{"type":"Feature","id":"u_fc_poi_mosque.2673","geometry":{"type":"Point","coordinates":[2.87927,6.43553]},"geometry_name":"geom","properties":{"state_code":"LA","source":"OSGOF","name":"Ajara Seje Ajigbare Mosque","ward_code":"LASBDY03","poi_type":"Mosque","global_id":"1f52d960-a8d4-4f91-8318-1cbc6322c797"}},{"type":"Feature","id":"u_fc_poi_mosque.2693","geometry":{"type":"Point","coordinates":[3.33221,6.55542]},"geometry_name":"geom","properties":{"state_code":"LA","source":"OSGOF","name":"Tawakaltu Mosque","ward_code":"LASOIO15","poi_type":"Mosque","global_id":"1f82cf08-bed2-412a-814f-6882c5a751b5"}},{"type":"Feature","id":"u_fc_poi_mosque.2773","geometry":{"type":"Point","coordinates":[3.29874,6.55974]},"geometry_name":"geom","properties":{"state_code":"LA","source":"OSGOF","name":"Morcas Ud Ulum Central Mosque","ward_code":"LASOIO02","poi_type":"Mosque","global_id":"205ec354-61da-4f7b-9372-35245b86014d"}},{"type":"Feature","id":"u_fc_poi_mosque.2840","geometry":{"type":"Point","coordinates":[3.31535,6.53876]},"geometry_name":"geom","properties":{"state_code":"LA","source":"OSGOF","name":"Ilamoshe Central Mosque","ward_code":"LASOIO12","poi_type":"Mosque","global_id":"2141ff11-19b8-43bd-bea1-b42b846cd35a"}},{"type":"Feature","id":"u_fc_poi_mosque.2874","geometry":{"type":"Point","coordinates":[3.30929,6.62743]},"geometry_name":"geom","properties":{"state_code":"LA","source":"OSGOF","name":"Anu Olwa Mosque","ward_code":"LASAGG04","poi_type":"Mosque","global_id":"21c36452-bb43-49b8-8ea9-1cf13dec7898"}},{"type":"Feature","id":"u_fc_poi_mosque.2900","geometry":{"type":"Point","coordinates":[3.1068,6.42249]},"geometry_name":"geom","properties":{"state_code":"LA","source":"OSGOF","name":"Oko Ogbo Central Mosque","ward_code":"LASBDY15","poi_type":"Mosque","global_id":"22032cd9-2616-4afd-90b9-667f53745531"}},{"type":"Feature","id":"u_fc_poi_mosque.2947","geometry":{"type":"Point","coordinates":[3.2597,6.55162]},"geometry_name":"geom","properties":{"state_code":"LA","source":"OSGOF","name":"Abdulkareem Memorial Mosque","ward_code":"LASAMO25","poi_type":"Mosque","global_id":"22a0caf3-43fc-44bc-9c1b-c93c30b3fd36"}},{"type":"Feature","id":"u_fc_poi_mosque.2974","geometry":{"type":"Point","coordinates":[3.24361,6.53008]},"geometry_name":"geom","properties":{"state_code":"LA","source":"OSGOF","name":"Abaranje Central Mosque","ward_code":"LASAMO01","poi_type":"Mosque","global_id":"22f10301-b53e-480a-a167-f4ef3546a1e5"}},{"type":"Feature","id":"u_fc_poi_mosque.2986","geometry":{"type":"Point","coordinates":[3.34323,6.50213]},"geometry_name":"geom","properties":{"state_code":"LA","source":"OSGOF","name":"Albarika Mosque Ikate","ward_code":"LASSUE08","poi_type":"Mosque","global_id":"23152ca5-b172-4a8d-9515-f27ba67ee0c7"}},{"type":"Feature","id":"u_fc_poi_mosque.3056","geometry":{"type":"Point","coordinates":[3.53289,6.57901]},"geometry_name":"geom","properties":{"state_code":"LA","source":"OSGOF","name":"Selewu Mosque","ward_code":"LASIKU01","poi_type":"Mosque","global_id":"23ce6ec6-2e37-49a0-bdc0-9e7e8b97e825"}},{"type":"Feature","id":"u_fc_poi_mosque.3066","geometry":{"type":"Point","coordinates":[3.79517,6.65684]},"geometry_name":"geom","properties":{"state_code":"LA","source":"OSGOF","name":"Itoikin Central Mosque","ward_code":"LASEPE09","poi_type":"Mosque","global_id":"23e691cf-3d32-4d89-ba51-e7b386ee367c"}},{"type":"Feature","id":"u_fc_poi_mosque.3104","geometry":{"type":"Point","coordinates":[3.33109,6.56142]},"geometry_name":"geom","properties":{"state_code":"LA","source":"OSGOF","name":"Fiwakesin Mosque","ward_code":"LASOIO19","poi_type":"Mosque","global_id":"244ad3ac-d5d5-4442-a48c-fd2bc6733a42"}},{"type":"Feature","id":"u_fc_poi_mosque.3153","geometry":{"type":"Point","coordinates":[3.38994,6.52354]},"geometry_name":"geom","properties":{"state_code":"LA","source":"OSGOF","name":"Ifelodun Mosque Abule Ijesha","ward_code":"LASLMD02","poi_type":"Mosque","global_id":"24caeed9-bcee-4c22-ab8e-85debb4d0a02"}},{"type":"Feature","id":"u_fc_poi_mosque.3174","geometry":{"type":"Point","coordinates":[3.34582,6.60486]},"geometry_name":"geom","properties":{"state_code":"LA","source":"OSGOF","name":"Tawakalitu Mosque","ward_code":"LASIKA17","poi_type":"Mosque","global_id":"25172dd9-5aa4-4124-9de5-4dff28e7ab61"}},{"type":"Feature","id":"u_fc_poi_mosque.3191","geometry":{"type":"Point","coordinates":[3.20044,6.51411]},"geometry_name":"geom","properties":{"state_code":"LA","source":"OSGOF","name":"Iba Central Mosque","ward_code":"LASOJO04","poi_type":"Mosque","global_id":"25421c4b-6c6d-40a5-a183-e4d2492dd5ec"}},{"type":"Feature","id":"u_fc_poi_mosque.3210","geometry":{"type":"Point","coordinates":[3.38327,6.5317]},"geometry_name":"geom","properties":{"state_code":"LA","source":"OSGOF","name":"Istujaba Mosque","ward_code":"LASSMU04","poi_type":"Mosque","global_id":"2570283d-658f-42a2-97fd-90509cd66b32"}},{"type":"Feature","id":"u_fc_poi_mosque.3289","geometry":{"type":"Point","coordinates":[3.29189,6.66065]},"geometry_name":"geom","properties":{"state_code":"LA","source":"OSGOF","name":"Hamadiya Mosque","ward_code":"LASIOE07","poi_type":"Mosque","global_id":"265a00d3-638d-4014-adff-213d46b45d36"}},{"type":"Feature","id":"u_fc_poi_mosque.3306","geometry":{"type":"Point","coordinates":[3.3336,6.55422]},"geometry_name":"geom","properties":{"state_code":"LA","source":"OSGOF","name":"Opeloyero Quranic Mosque","ward_code":"LASOIO15","poi_type":"Mosque","global_id":"26908c00-91f5-4327-9526-824de3038032"}},{"type":"Feature","id":"u_fc_poi_mosque.3312","geometry":{"type":"Point","coordinates":[3.33409,6.46734]},"geometry_name":"geom","properties":{"state_code":"LA","source":"OSGOF","name":"Prince Abdulazeez Mosque","ward_code":"LASATO06","poi_type":"Mosque","global_id":"26a3b33b-c39f-43d2-981f-2602ca7273eb"}},{"type":"Feature","id":"u_fc_poi_mosque.3410","geometry":{"type":"Point","coordinates":[3.61754,6.42691]},"geometry_name":"geom","properties":{"state_code":"LA","source":"OSGOF","name":"Okun Mopo Akinlade Central Mosque","ward_code":"LASEOA17","poi_type":"Mosque","global_id":"27bbdd3d-8ec5-48e6-a307-06e03920922c"}},{"type":"Feature","id":"u_fc_poi_mosque.3469","geometry":{"type":"Point","coordinates":[3.34866,6.51912]},"geometry_name":"geom","properties":{"state_code":"LA","source":"OSGOF","name":"Idi Araba Muslim Community Mosque","ward_code":"LASMUN11","poi_type":"Mosque","global_id":"2866fbf0-4586-4aea-a8eb-0ff413e156bc"}},{"type":"Feature","id":"u_fc_poi_mosque.3472","geometry":{"type":"Point","coordinates":[3.33803,6.46423]},"geometry_name":"geom","properties":{"state_code":"LA","source":"OSGOF","name":"Anjorin Aduragbemi Mosque","ward_code":"LASATO03","poi_type":"Mosque","global_id":"286ed029-29f4-4c87-bfdb-f44b9af8a96a"}},{"type":"Feature","id":"u_fc_poi_mosque.3476","geometry":{"type":"Point","coordinates":[3.35213,6.46439]},"geometry_name":"geom","properties":{"state_code":"LA","source":"OSGOF","name":"Oridilu Mosque 1","ward_code":"LASATO05","poi_type":"Mosque","global_id":"2881e6d5-1f92-4bd5-896a-3deaaa3df947"}},{"type":"Feature","id":"u_fc_poi_mosque.3586","geometry":{"type":"Point","coordinates":[3.34363,6.56041]},"geometry_name":"geom","properties":{"state_code":"LA","source":"OSGOF","name":"Oshodi Central Mosque","ward_code":"LASOIO11","poi_type":"Mosque","global_id":"29abe251-d722-4959-9f80-e6c54a0c95d2"}},{"type":"Feature","id":"u_fc_poi_mosque.3618","geometry":{"type":"Point","coordinates":[3.36414,6.52356]},"geometry_name":"geom","properties":{"state_code":"LA","source":"OSGOF","name":"Amadiya Mosque","ward_code":"LASMUN02","poi_type":"Mosque","global_id":"29fec2c3-48c9-40b8-bfc6-518355bf366f"}},{"type":"Feature","id":"u_fc_poi_mosque.3699","geometry":{"type":"Point","coordinates":[3.33764,6.60063]},"geometry_name":"geom","properties":{"state_code":"LA","source":"OSGOF","name":"Anifowose Mosque","ward_code":"LASIKA05","poi_type":"Mosque","global_id":"2af50949-9e8d-415c-81dc-2f70f839f388"}},{"type":"Feature","id":"u_fc_poi_mosque.3717","geometry":{"type":"Point","coordinates":[3.342483,6.463823]},"geometry_name":"geom","properties":{"state_code":"LA","source":"eHA_Polio","name":"Akorede Mosque","ward_code":"LASATO05","poi_type":"Mosque","global_id":"2b2a5ff2-10e3-4b21-9960-a4da340616bf"}},{"type":"Feature","id":"u_fc_poi_mosque.3727","geometry":{"type":"Point","coordinates":[3.39701,6.45298]},"geometry_name":"geom","properties":{"state_code":"LA","source":"OSGOF","name":"Jama At Ul Islamiya Mosque","ward_code":"LASLID16","poi_type":"Mosque","global_id":"2b40b857-3095-48bb-9576-e3a413c2d240"}},{"type":"Feature","id":"u_fc_poi_mosque.3735","geometry":{"type":"Point","coordinates":[3.22292,6.539042]},"geometry_name":"geom","properties":{"state_code":"LA","source":"eHA_Polio","name":"Odofin Mosque","ward_code":"LASAMO08","poi_type":"Mosque","global_id":"2b4f6e2b-a62e-42f5-85af-2c8d2e304eb6"}},{"type":"Feature","id":"u_fc_poi_mosque.3786","geometry":{"type":"Point","coordinates":[3.58227,6.4926]},"geometry_name":"geom","properties":{"state_code":"LA","source":"OSGOF","name":"Central Mosque Oke Ira Kereke","ward_code":"LASEOA02","poi_type":"Mosque","global_id":"2bf17c3d-091a-48d2-b499-94c8a6614e79"}},{"type":"Feature","id":"u_fc_poi_mosque.3818","geometry":{"type":"Point","coordinates":[3.33223,6.45482]},"geometry_name":"geom","properties":{"state_code":"LA","source":"OSGOF","name":"Awodi Ora Mosque","ward_code":"LASATO07","poi_type":"Mosque","global_id":"2c596309-631f-4b32-8e92-56cfba82a123"}},{"type":"Feature","id":"u_fc_poi_mosque.3865","geometry":{"type":"Point","coordinates":[3.51193,6.68323]},"geometry_name":"geom","properties":{"state_code":"LA","source":"OSGOF","name":"Odo Kekere Central Mosque","ward_code":"LASIKU23","poi_type":"Mosque","global_id":"2cdf3d39-6341-45db-9306-256e8701e4cc"}},{"type":"Feature","id":"u_fc_poi_mosque.3867","geometry":{"type":"Point","coordinates":[3.33267,6.52052]},"geometry_name":"geom","properties":{"state_code":"LA","source":"OSGOF","name":"Isaha Deen Mosque","ward_code":"LASOIO13","poi_type":"Mosque","global_id":"2ce22dca-bf47-44aa-9602-d5f3db6460a3"}},{"type":"Feature","id":"u_fc_poi_mosque.3958","geometry":{"type":"Point","coordinates":[3.59438,6.56586]},"geometry_name":"geom","properties":{"state_code":"LA","source":"OSGOF","name":"Alasalatu Mosque","ward_code":"LASIKU25","poi_type":"Mosque","global_id":"2df8cec4-1f8a-4647-b1b9-1103697e0df9"}},{"type":"Feature","id":"u_fc_poi_mosque.3996","geometry":{"type":"Point","coordinates":[3.36156,6.52699]},"geometry_name":"geom","properties":{"state_code":"LA","source":"OSGOF","name":"Odi Olowo Central Mosque","ward_code":"LASMUN06","poi_type":"Mosque","global_id":"2e6adeac-add6-417d-8e3c-3c0d2ef13206"}},{"type":"Feature","id":"u_fc_poi_mosque.4042","geometry":{"type":"Point","coordinates":[3.39639,6.60678]},"geometry_name":"geom","properties":{"state_code":"LA","source":"OSGOF","name":"Erukan Mosque","ward_code":"LASKSE09","poi_type":"Mosque","global_id":"2f0e934f-2eda-425f-8f2b-776e5f07b9ef"}},{"type":"Feature","id":"u_fc_poi_mosque.4046","geometry":{"type":"Point","coordinates":[3.33872,6.55375]},"geometry_name":"geom","properties":{"state_code":"LA","source":"OSGOF","name":"Opeloyeru Oloro Mosque","ward_code":"LASOIO01","poi_type":"Mosque","global_id":"2f1931c9-87dc-4fd7-92a7-203c78f94ca8"}},{"type":"Feature","id":"u_fc_poi_mosque.4190","geometry":{"type":"Point","coordinates":[3.157,6.40507]},"geometry_name":"geom","properties":{"state_code":"LA","source":"OSGOF","name":"Agaja Central Mosque","ward_code":"LASOJO15","poi_type":"Mosque","global_id":"30c067e7-51fc-403e-809c-36593329fe52"}},{"type":"Feature","id":"u_fc_poi_mosque.4195","geometry":{"type":"Point","coordinates":[3.89666,6.61312]},"geometry_name":"geom","properties":{"state_code":"LA","source":"OSGOF","name":"Ejirin Central Mosque","ward_code":"LASEPE07","poi_type":"Mosque","global_id":"30cf7a7f-8fe5-41a5-a322-b7791cecf31e"}},{"type":"Feature","id":"u_fc_poi_mosque.4197","geometry":{"type":"Point","coordinates":[3.32692,6.52886]},"geometry_name":"geom","properties":{"state_code":"LA","source":"OSGOF","name":"Alhaji Hassan Akanbi Mosque","ward_code":"LASOIO05","poi_type":"Mosque","global_id":"30d42711-e38c-4dcc-943f-42f9e3bba5e2"}},{"type":"Feature","id":"u_fc_poi_mosque.4259","geometry":{"type":"Point","coordinates":[3.31321,6.63157]},"geometry_name":"geom","properties":{"state_code":"LA","source":"OSGOF","name":"Olorungbebe Mosque 3","ward_code":"LASAGG12","poi_type":"Mosque","global_id":"3196d40f-c5db-4c07-b0c8-072d48e3f976"}},{"type":"Feature","id":"u_fc_poi_mosque.4269","geometry":{"type":"Point","coordinates":[3.39994,6.45271]},"geometry_name":"geom","properties":{"state_code":"LA","source":"OSGOF","name":"Abu Court Quranic Mosque","ward_code":"LASLID06","poi_type":"Mosque","global_id":"31bc01b3-a6c5-466b-a989-9980d938df07"}},{"type":"Feature","id":"u_fc_poi_mosque.4296","geometry":{"type":"Point","coordinates":[3.33788,6.62969]},"geometry_name":"geom","properties":{"state_code":"LA","source":"OSGOF","name":"Aranseolohun Center Mosque","ward_code":"LASIOE10","poi_type":"Mosque","global_id":"321ffe8e-11f5-4436-b489-1ea2b77a211c"}},{"type":"Feature","id":"u_fc_poi_mosque.4300","geometry":{"type":"Point","coordinates":[3.35047,6.53189]},"geometry_name":"geom","properties":{"state_code":"LA","source":"OSGOF","name":"Ajumonire Mosque","ward_code":"LASMUN12","poi_type":"Mosque","global_id":"3235a6a6-b671-4016-9922-54b1c650a91b"}},{"type":"Feature","id":"u_fc_poi_mosque.4338","geometry":{"type":"Point","coordinates":[3.40233,6.60387]},"geometry_name":"geom","properties":{"state_code":"LA","source":"OSGOF","name":"Owode Orile Mosque","ward_code":"LASKSE03","poi_type":"Mosque","global_id":"32a23e91-5a8b-4945-ad97-9a2d5eb2c965"}},{"type":"Feature","id":"u_fc_poi_mosque.4393","geometry":{"type":"Point","coordinates":[3.36055,6.45612]},"geometry_name":"geom","properties":{"state_code":"LA","source":"OSGOF","name":"Mobil Road Mosque","ward_code":"LASAPA09","poi_type":"Mosque","global_id":"335008d0-4cc4-411c-9d98-b8bc8d32b2d8"}},{"type":"Feature","id":"u_fc_poi_mosque.4398","geometry":{"type":"Point","coordinates":[3.38702,6.53646]},"geometry_name":"geom","properties":{"state_code":"LA","source":"OSGOF","name":"Orile Bariga Central Mosque","ward_code":"LASSMU01","poi_type":"Mosque","global_id":"33603e0c-5c0d-4580-8ebe-211892357d87"}},{"type":"Feature","id":"u_fc_poi_mosque.4435","geometry":{"type":"Point","coordinates":[3.35162,6.52707]},"geometry_name":"geom","properties":{"state_code":"LA","source":"OSGOF","name":"Nurudeen Mosque Alasalatu","ward_code":"LASMUN11","poi_type":"Mosque","global_id":"33da7c3f-7bc7-4756-ac46-d92742078a36"}},{"type":"Feature","id":"u_fc_poi_mosque.4474","geometry":{"type":"Point","coordinates":[3.35209,6.45502]},"geometry_name":"geom","properties":{"state_code":"LA","source":"OSGOF","name":"Alayabiagba Mosque 2","ward_code":"LASATO08","poi_type":"Mosque","global_id":"344e69eb-c30d-4648-8504-029b4f2204ae"}},{"type":"Feature","id":"u_fc_poi_mosque.4518","geometry":{"type":"Point","coordinates":[3.3373,6.51113]},"geometry_name":"geom","properties":{"state_code":"LA","source":"OSGOF","name":"Itire Central Mosque","ward_code":"LASMUN17","poi_type":"Mosque","global_id":"349aa871-686e-4c0a-ab61-820c02753bab"}},{"type":"Feature","id":"u_fc_poi_mosque.4551","geometry":{"type":"Point","coordinates":[3.33801,6.63593]},"geometry_name":"geom","properties":{"state_code":"LA","source":"OSGOF","name":"Yahaya Ismalla Mosque","ward_code":"LASIOE09","poi_type":"Mosque","global_id":"34f05258-21d2-4a74-b00a-5011c8f4c8e6"}},{"type":"Feature","id":"u_fc_poi_mosque.4579","geometry":{"type":"Point","coordinates":[3.11353,6.49623]},"geometry_name":"geom","properties":{"state_code":"LA","source":"OSGOF","name":"Oto Awori Central Mosque","ward_code":"LASOJO13","poi_type":"Mosque","global_id":"3540df35-fb90-4e18-a78c-6d25f6b7e61a"}},{"type":"Feature","id":"u_fc_poi_mosque.4603","geometry":{"type":"Point","coordinates":[3.97356,6.57982]},"geometry_name":"geom","properties":{"state_code":"LA","source":"OSGOF","name":"Ansar Ud Deen Central Mosque","ward_code":"LASEPE03","poi_type":"Mosque","global_id":"357e82a1-c8df-41ac-9753-f116f87bbdc2"}},{"type":"Feature","id":"u_fc_poi_mosque.4711","geometry":{"type":"Point","coordinates":[3.39584,6.62035]},"geometry_name":"geom","properties":{"state_code":"LA","source":"OSGOF","name":"Olakunlehin Mosque","ward_code":"LASKSE21","poi_type":"Mosque","global_id":"36cb4f64-09dc-4dad-a805-d378c545847b"}},{"type":"Feature","id":"u_fc_poi_mosque.4722","geometry":{"type":"Point","coordinates":[3.32996,6.50924]},"geometry_name":"geom","properties":{"state_code":"LA","source":"OSGOF","name":"Mahadial Azeez Memorial Mosque","ward_code":"LASMUN14","poi_type":"Mosque","global_id":"36e86802-60fc-4e52-9c88-367aeb1cb2ce"}},{"type":"Feature","id":"u_fc_poi_mosque.4723","geometry":{"type":"Point","coordinates":[3.37301,6.53744]},"geometry_name":"geom","properties":{"state_code":"LA","source":"OSGOF","name":"Ifedayo Mosque","ward_code":"LASSMU09","poi_type":"Mosque","global_id":"36e8eccc-2483-48a9-9a89-81e84b93c565"}},{"type":"Feature","id":"u_fc_poi_mosque.4734","geometry":{"type":"Point","coordinates":[3.13983,6.44553]},"geometry_name":"geom","properties":{"state_code":"LA","source":"OSGOF","name":"Imolodini Central Mosque","ward_code":"LASOJO02","poi_type":"Mosque","global_id":"37043f01-405e-456a-8472-697e93380c76"}},{"type":"Feature","id":"u_fc_poi_mosque.4785","geometry":{"type":"Point","coordinates":[3.33545,6.44244]},"geometry_name":"geom","properties":{"state_code":"LA","source":"OSGOF","name":"Iya Mecca Central Mosque","ward_code":"LASATO04","poi_type":"Mosque","global_id":"37ade2dd-59b0-4f6b-99b1-3597b30b0e7c"}},{"type":"Feature","id":"u_fc_poi_mosque.4795","geometry":{"type":"Point","coordinates":[3.23553,6.41821]},"geometry_name":"geom","properties":{"state_code":"LA","source":"OSGOF","name":"Ikaare Central Mosque","ward_code":"LASAON05","poi_type":"Mosque","global_id":"37ce85a0-3c9a-484e-acc8-798d82060cdc"}},{"type":"Feature","id":"u_fc_poi_mosque.4858","geometry":{"type":"Point","coordinates":[3.33713,6.44331]},"geometry_name":"geom","properties":{"state_code":"LA","source":"OSGOF","name":"Alakoto Mosque 3","ward_code":"LASATO04","poi_type":"Mosque","global_id":"385ded59-1fd0-4ae5-bd44-727bc3494667"}},{"type":"Feature","id":"u_fc_poi_mosque.4868","geometry":{"type":"Point","coordinates":[3.33262,6.52017]},"geometry_name":"geom","properties":{"state_code":"LA","source":"OSGOF","name":"Shams Ud Deen Mosque","ward_code":"LASOIO13","poi_type":"Mosque","global_id":"386f92dd-c717-47cd-9cde-313e8f0050f2"}},{"type":"Feature","id":"u_fc_poi_mosque.4872","geometry":{"type":"Point","coordinates":[3.29499,6.55305]},"geometry_name":"geom","properties":{"state_code":"LA","source":"OSGOF","name":"Faith Convalescent Mosque","ward_code":"LASOIO10","poi_type":"Mosque","global_id":"38771d05-4c96-432e-b831-2647fb4e1f28"}},{"type":"Feature","id":"u_fc_poi_mosque.4884","geometry":{"type":"Point","coordinates":[3.38534,6.52752]},"geometry_name":"geom","properties":{"state_code":"LA","source":"OSGOF","name":"Akoka Central Mosque","ward_code":"LASSMU07","poi_type":"Mosque","global_id":"388d0bb6-fdb0-42c4-a926-e325bdbd3830"}},{"type":"Feature","id":"u_fc_poi_mosque.4915","geometry":{"type":"Point","coordinates":[3.3334,6.49958]},"geometry_name":"geom","properties":{"state_code":"LA","source":"OSGOF","name":"Aranshe Oluwa Mosque","ward_code":"LASSUE21","poi_type":"Mosque","global_id":"38c32909-e226-4f7b-ae9c-736e8578352e"}},{"type":"Feature","id":"u_fc_poi_mosque.4942","geometry":{"type":"Point","coordinates":[3.34377,6.61091]},"geometry_name":"geom","properties":{"state_code":"LA","source":"OSGOF","name":"Abule Oloti Mosque","ward_code":"LASIKA17","poi_type":"Mosque","global_id":"39043518-76fc-49fb-a283-f0c468f9064a"}},{"type":"Feature","id":"u_fc_poi_mosque.4979","geometry":{"type":"Point","coordinates":[3.34557,6.47778]},"geometry_name":"geom","properties":{"state_code":"LA","source":"OSGOF","name":"Afenifere Central Mosque","ward_code":"LASAPA03","poi_type":"Mosque","global_id":"394cff5e-0881-4095-a51b-cec808607614"}},{"type":"Feature","id":"u_fc_poi_mosque.5006","geometry":{"type":"Point","coordinates":[3.2346,6.4278]},"geometry_name":"geom","properties":{"state_code":"LA","source":"OSGOF","name":"Surulere Mosque Irede Oriade","ward_code":"LASAON05","poi_type":"Mosque","global_id":"39903c83-e675-43d3-b14d-90a03032f10a"}},{"type":"Feature","id":"u_fc_poi_mosque.5036","geometry":{"type":"Point","coordinates":[3.32829,6.47494]},"geometry_name":"geom","properties":{"state_code":"LA","source":"OSGOF","name":"Ashabi Olarenwaju Mosque","ward_code":"LASSUE09","poi_type":"Mosque","global_id":"3a06c62f-efe2-48f7-b2ec-3ebb2d29498d"}},{"type":"Feature","id":"u_fc_poi_mosque.5062","geometry":{"type":"Point","coordinates":[3.33344,6.61793]},"geometry_name":"geom","properties":{"state_code":"LA","source":"OSGOF","name":"Ajegunle Ogba Mosque","ward_code":"LASAGG06","poi_type":"Mosque","global_id":"3a4716a4-d940-4bcd-b2eb-29dc2154da78"}},{"type":"Feature","id":"u_fc_poi_mosque.5063","geometry":{"type":"Point","coordinates":[3.40036,6.55682]},"geometry_name":"geom","properties":{"state_code":"LA","source":"OSGOF","name":"Busari Lawal Mosque","ward_code":"LASKSE17","poi_type":"Mosque","global_id":"3a4745cc-3fcd-49b2-8fa6-501311913357"}},{"type":"Feature","id":"u_fc_poi_mosque.5084","geometry":{"type":"Point","coordinates":[3.34842,6.44715]},"geometry_name":"geom","properties":{"state_code":"LA","source":"OSGOF","name":"Olodi Apapa Mosque 2","ward_code":"LASATO16","poi_type":"Mosque","global_id":"3a7f6dc7-5021-49a6-bdc6-a6cfad8bd8c8"}},{"type":"Feature","id":"u_fc_poi_mosque.5136","geometry":{"type":"Point","coordinates":[3.34327,6.46955]},"geometry_name":"geom","properties":{"state_code":"LA","source":"OSGOF","name":"Opeloyeru Mosque Amukoko","ward_code":"LASATO11","poi_type":"Mosque","global_id":"3b066121-9b62-4444-853d-2a4f23b051b8"}},{"type":"Feature","id":"u_fc_poi_mosque.5153","geometry":{"type":"Point","coordinates":[3.48622,6.43515]},"geometry_name":"geom","properties":{"state_code":"LA","source":"OSGOF","name":"Ikate Mosque","ward_code":"LASEOA10","poi_type":"Mosque","global_id":"3b45fdac-adf2-45da-a1d7-a8e4983fafd3"}},{"type":"Feature","id":"u_fc_poi_mosque.5160","geometry":{"type":"Point","coordinates":[3.34138,6.63776]},"geometry_name":"geom","properties":{"state_code":"LA","source":"OSGOF","name":"Olorunsogo Mosque","ward_code":"LASIOE09","poi_type":"Mosque","global_id":"3b548956-5762-41d1-83b6-0a643ab79ad1"}},{"type":"Feature","id":"u_fc_poi_mosque.5168","geometry":{"type":"Point","coordinates":[3.16164,6.42777]},"geometry_name":"geom","properties":{"state_code":"LA","source":"OSGOF","name":"Ifeiwakesin Central Mosque","ward_code":"LASOJO09","poi_type":"Mosque","global_id":"3b686b1b-86ec-47c6-9c27-01c59dfa8a9c"}},{"type":"Feature","id":"u_fc_poi_mosque.5199","geometry":{"type":"Point","coordinates":[3.38341,6.45899]},"geometry_name":"geom","properties":{"state_code":"LA","source":"OSGOF","name":"Iya Alaso Oke Mosque","ward_code":"LASLID14","poi_type":"Mosque","global_id":"3bcc552d-ce2e-4830-a397-b7441ddc886e"}},{"type":"Feature","id":"u_fc_poi_mosque.5216","geometry":{"type":"Point","coordinates":[3.32008,6.60672]},"geometry_name":"geom","properties":{"state_code":"LA","source":"OSGOF","name":"Onilekere Central Miosque Mosque","ward_code":"LASIKA13","poi_type":"Mosque","global_id":"3c0c2ec5-0301-468c-9963-5e740a62ee10"}},{"type":"Feature","id":"u_fc_poi_mosque.5217","geometry":{"type":"Point","coordinates":[3.27212,6.65281]},"geometry_name":"geom","properties":{"state_code":"LA","source":"OSGOF","name":"Jibdal Mosque","ward_code":"LASAMO06","poi_type":"Mosque","global_id":"3c0d3e4d-2019-4e3e-b8e1-f822b07488cc"}},{"type":"Feature","id":"u_fc_poi_mosque.5410","geometry":{"type":"Point","coordinates":[3.27913,6.57939]},"geometry_name":"geom","properties":{"state_code":"LA","source":"OSGOF","name":"Nawaie Deen Society Mosque","ward_code":"LASAMO28","poi_type":"Mosque","global_id":"3e3888c9-eefc-4dcc-90a7-a965577ea561"}},{"type":"Feature","id":"u_fc_poi_mosque.5461","geometry":{"type":"Point","coordinates":[3.30087,6.66032]},"geometry_name":"geom","properties":{"state_code":"LA","source":"OSGOF","name":"Ilupeju Titun Central Mosque","ward_code":"LASIOE01","poi_type":"Mosque","global_id":"3ecc0887-00dc-4821-adcf-492658018bc8"}},{"type":"Feature","id":"u_fc_poi_mosque.5489","geometry":{"type":"Point","coordinates":[3.02839,6.40428]},"geometry_name":"geom","properties":{"state_code":"LA","source":"OSGOF","name":"Dadiluwi Central Moqsue Mosque","ward_code":"LASOJO15","poi_type":"Mosque","global_id":"3f069860-f30f-4ddf-9253-764ea8a1fb7a"}},{"type":"Feature","id":"u_fc_poi_mosque.5514","geometry":{"type":"Point","coordinates":[3.71641,6.64476]},"geometry_name":"geom","properties":{"state_code":"LA","source":"OSGOF","name":"Owu Central Mosque","ward_code":"LASEPE02","poi_type":"Mosque","global_id":"3f5feba4-f5e9-4a31-a241-5f3f645024c3"}},{"type":"Feature","id":"u_fc_poi_mosque.5550","geometry":{"type":"Point","coordinates":[3.35151,6.46733]},"geometry_name":"geom","properties":{"state_code":"LA","source":"OSGOF","name":"Mobolorunsowo Central Mosque","ward_code":"LASAPA07","poi_type":"Mosque","global_id":"3fa7e253-1ffa-46c7-bc2d-c99f1dbd5440"}},{"type":"Feature","id":"u_fc_poi_mosque.5684","geometry":{"type":"Point","coordinates":[3.19448,6.46013]},"geometry_name":"geom","properties":{"state_code":"LA","source":"OSGOF","name":"Alaba Rango Intil Mosque","ward_code":"LASOJO11","poi_type":"Mosque","global_id":"4132eadb-492e-41bf-a586-7cd12df482ca"}},{"type":"Feature","id":"u_fc_poi_mosque.5800","geometry":{"type":"Point","coordinates":[3.14437,6.42271]},"geometry_name":"geom","properties":{"state_code":"LA","source":"OSGOF","name":"Origele Central Mosque","ward_code":"LASOJO09","poi_type":"Mosque","global_id":"4255b4a8-85ae-4030-b650-d5c91319a863"}},{"type":"Feature","id":"u_fc_poi_mosque.5854","geometry":{"type":"Point","coordinates":[3.32822,6.5139]},"geometry_name":"geom","properties":{"state_code":"LA","source":"OSGOF","name":"Alahu Mosque","ward_code":"LASOIO13","poi_type":"Mosque","global_id":"42dfaa0c-d42c-4bc2-9955-a038f0a64c55"}},{"type":"Feature","id":"u_fc_poi_mosque.5919","geometry":{"type":"Point","coordinates":[3.36,6.49099]},"geometry_name":"geom","properties":{"state_code":"LA","source":"OSGOF","name":"Anwar Al Islam Mission Mosque","ward_code":"LASSUE01","poi_type":"Mosque","global_id":"43ab1092-569e-41fd-a939-94bbf0e9afa4"}},{"type":"Feature","id":"u_fc_poi_mosque.5936","geometry":{"type":"Point","coordinates":[3.34315,6.48346]},"geometry_name":"geom","properties":{"state_code":"LA","source":"OSGOF","name":"Aduranigba Central Mosque","ward_code":"LASSUE22","poi_type":"Mosque","global_id":"43c1cd5f-fc4e-421a-85e1-62c9e89c3ed7"}},{"type":"Feature","id":"u_fc_poi_mosque.5976","geometry":{"type":"Point","coordinates":[3.38308,6.52473]},"geometry_name":"geom","properties":{"state_code":"LA","source":"OSGOF","name":"Sanusi Central Mosque","ward_code":"LASSMU07","poi_type":"Mosque","global_id":"442c2299-436c-40e9-b0f8-3b58911a3340"}},{"type":"Feature","id":"u_fc_poi_mosque.6092","geometry":{"type":"Point","coordinates":[3.38707,6.48315]},"geometry_name":"geom","properties":{"state_code":"LA","source":"OSGOF","name":"Anwar Ud Deen Central Mosque","ward_code":"LASLMD07","poi_type":"Mosque","global_id":"45a4afb0-ef81-4dd7-ae28-b0640edb1716"}},{"type":"Feature","id":"u_fc_poi_mosque.6094","geometry":{"type":"Point","coordinates":[3.31048,6.62925]},"geometry_name":"geom","properties":{"state_code":"LA","source":"OSGOF","name":"Orile Agege Central Mosque","ward_code":"LASAGG07","poi_type":"Mosque","global_id":"45aa0d5b-fb95-4452-bf07-5820b80008ee"}},{"type":"Feature","id":"u_fc_poi_mosque.6118","geometry":{"type":"Point","coordinates":[3.36407,6.45648]},"geometry_name":"geom","properties":{"state_code":"LA","source":"OSGOF","name":"Marine Beach Mosque","ward_code":"LASAPA09","poi_type":"Mosque","global_id":"45f49c22-f90c-4fb0-b7b7-28f17af3a7bc"}},{"type":"Feature","id":"u_fc_poi_mosque.6135","geometry":{"type":"Point","coordinates":[3.34134,6.62917]},"geometry_name":"geom","properties":{"state_code":"LA","source":"OSGOF","name":"Area G Central Mosque","ward_code":"LASIKA07","poi_type":"Mosque","global_id":"46322e22-9329-42cb-9844-be6b541ad6eb"}},{"type":"Feature","id":"u_fc_poi_mosque.6157","geometry":{"type":"Point","coordinates":[3.39417,6.54595]},"geometry_name":"geom","properties":{"state_code":"LA","source":"OSGOF","name":"Aibarila Mosque","ward_code":"LASSMU03","poi_type":"Mosque","global_id":"466b29ec-9299-4e53-ae46-941c061bb4ee"}},{"type":"Feature","id":"u_fc_poi_mosque.6193","geometry":{"type":"Point","coordinates":[3.39006,6.45569]},"geometry_name":"geom","properties":{"state_code":"LA","source":"OSGOF","name":"Ansarul Islam Society Of Nigeria Mosque","ward_code":"LASLID02","poi_type":"Mosque","global_id":"46d6dfd9-4d3f-4148-8692-511b63ebd312"}},{"type":"Feature","id":"u_fc_poi_mosque.6220","geometry":{"type":"Point","coordinates":[3.98678,6.60697]},"geometry_name":"geom","properties":{"state_code":"LA","source":"OSGOF","name":"Adebowale Central Mosque","ward_code":"LASEPE14","poi_type":"Mosque","global_id":"473aa0ea-2625-43ec-9bb7-a96e429b1ce0"}},{"type":"Feature","id":"u_fc_poi_mosque.6301","geometry":{"type":"Point","coordinates":[3.29219,6.42448]},"geometry_name":"geom","properties":{"state_code":"LA","source":"OSGOF","name":"Imore Central Mosque","ward_code":"LASAON06","poi_type":"Mosque","global_id":"4840a7b4-bc86-493c-aabd-164a8b689709"}},{"type":"Feature","id":"u_fc_poi_mosque.6339","geometry":{"type":"Point","coordinates":[3.3583,6.49936]},"geometry_name":"geom","properties":{"state_code":"LA","source":"OSGOF","name":"Abdul Wahab Folawiyo Mosque","ward_code":"LASSUE23","poi_type":"Mosque","global_id":"48bdf9e9-ac35-4400-925f-75a372e05205"}},{"type":"Feature","id":"u_fc_poi_mosque.6341","geometry":{"type":"Point","coordinates":[3.352,6.45593]},"geometry_name":"geom","properties":{"state_code":"LA","source":"OSGOF","name":"Alayabiagba Mosque 1","ward_code":"LASATO08","poi_type":"Mosque","global_id":"48c523c2-16ee-4a54-b1a9-fd0c183e034e"}},{"type":"Feature","id":"u_fc_poi_mosque.6427","geometry":{"type":"Point","coordinates":[3.39247,6.45606]},"geometry_name":"geom","properties":{"state_code":"LA","source":"OSGOF","name":"Faji Mosque","ward_code":"LASLID03","poi_type":"Mosque","global_id":"49db94e8-fc43-4db4-9fcc-4b00a8346baa"}},{"type":"Feature","id":"u_fc_poi_mosque.6447","geometry":{"type":"Point","coordinates":[3.31343,6.411]},"geometry_name":"geom","properties":{"state_code":"LA","source":"OSGOF","name":"Okun Glass Central Mosque","ward_code":"LASAON09","poi_type":"Mosque","global_id":"4a1dea59-7924-4a6c-95ce-975937e32906"}},{"type":"Feature","id":"u_fc_poi_mosque.6511","geometry":{"type":"Point","coordinates":[3.17388,6.47874]},"geometry_name":"geom","properties":{"state_code":"LA","source":"OSGOF","name":"Mebamu Central Mosque","ward_code":"LASOJO01","poi_type":"Mosque","global_id":"4aeb9a34-4052-4b1a-babc-ffc2bdcf760b"}},{"type":"Feature","id":"u_fc_poi_mosque.6536","geometry":{"type":"Point","coordinates":[3.28679,6.45779]},"geometry_name":"geom","properties":{"state_code":"LA","source":"OSGOF","name":"Ifelodun Central Mosque","ward_code":"LASAON03","poi_type":"Mosque","global_id":"4b3fc7d8-45ee-4c2c-afdb-27365bf9c26d"}},{"type":"Feature","id":"u_fc_poi_mosque.6546","geometry":{"type":"Point","coordinates":[3.34025,6.44564]},"geometry_name":"geom","properties":{"state_code":"LA","source":"OSGOF","name":"Alakoto Mosque 2","ward_code":"LASATO15","poi_type":"Mosque","global_id":"4b61da87-731c-4043-be85-2cd78d7165e6"}},{"type":"Feature","id":"u_fc_poi_mosque.6568","geometry":{"type":"Point","coordinates":[3.15151,6.46116]},"geometry_name":"geom","properties":{"state_code":"LA","source":"OSGOF","name":"Alhaji Gatar Central Mosque","ward_code":"LASOJO03","poi_type":"Mosque","global_id":"4bba2389-9c20-4317-a000-5280dc5f6fd2"}},{"type":"Feature","id":"u_fc_poi_mosque.6620","geometry":{"type":"Point","coordinates":[3.27601,6.66903]},"geometry_name":"geom","properties":{"state_code":"LA","source":"OSGOF","name":"A U D Mosque","ward_code":"LASIOE08","poi_type":"Mosque","global_id":"4c44bd4b-6322-492b-b58d-7d29a6b11db4"}},{"type":"Feature","id":"u_fc_poi_mosque.6625","geometry":{"type":"Point","coordinates":[3.35854,6.47043]},"geometry_name":"geom","properties":{"state_code":"LA","source":"OSGOF","name":"Asarudeen Mosque","ward_code":"LASAPA11","poi_type":"Mosque","global_id":"4c576e31-0581-4841-a47e-bf5c58d420df"}},{"type":"Feature","id":"u_fc_poi_mosque.6650","geometry":{"type":"Point","coordinates":[3.34276,6.44537]},"geometry_name":"geom","properties":{"state_code":"LA","source":"OSGOF","name":"Tolu Mosque 3","ward_code":"LASATO15","poi_type":"Mosque","global_id":"4cb57535-2f05-45ca-9fbb-128ffbce3c38"}},{"type":"Feature","id":"u_fc_poi_mosque.6651","geometry":{"type":"Point","coordinates":[3.79388,6.44026]},"geometry_name":"geom","properties":{"state_code":"LA","source":"OSGOF","name":"Central Mosque Okun Alade","ward_code":"LASIUI10","poi_type":"Mosque","global_id":"4cbd63c3-0526-48bb-bc84-9351da26c3a5"}},{"type":"Feature","id":"u_fc_poi_mosque.6666","geometry":{"type":"Point","coordinates":[3.60898,6.44701]},"geometry_name":"geom","properties":{"state_code":"LA","source":"OSGOF","name":"Anuoluwa Mosque","ward_code":"LASEOA17","poi_type":"Mosque","global_id":"4ced0f1b-1560-484f-9072-1afbb7690c67"}},{"type":"Feature","id":"u_fc_poi_mosque.6703","geometry":{"type":"Point","coordinates":[3.03604,6.46325]},"geometry_name":"geom","properties":{"state_code":"LA","source":"OSGOF","name":"Obele Central Mosque","ward_code":"LASBDY08","poi_type":"Mosque","global_id":"4d54a991-aaf1-428f-ad48-e356e2aa5111"}},{"type":"Feature","id":"u_fc_poi_mosque.6721","geometry":{"type":"Point","coordinates":[4.085991,6.654345]},"geometry_name":"geom","properties":{"state_code":"LA","source":"eHA_Polio","name":"Iju Central Mosque","ward_code":"LASEPE10","poi_type":"Mosque","global_id":"4d9a88f2-ead2-45e7-ad2d-e5678f885a31"}},{"type":"Feature","id":"u_fc_poi_mosque.6727","geometry":{"type":"Point","coordinates":[3.38801,6.49458]},"geometry_name":"geom","properties":{"state_code":"LA","source":"OSGOF","name":"Oloruntoba Mosque","ward_code":"LASLMD12","poi_type":"Mosque","global_id":"4db0ffb1-bed9-4d25-8cff-5d2c841230de"}},{"type":"Feature","id":"u_fc_poi_mosque.6797","geometry":{"type":"Point","coordinates":[3.30188,6.62203]},"geometry_name":"geom","properties":{"state_code":"LA","source":"OSGOF","name":"Opeloyeru Mosque Alaagba","ward_code":"LASAGG04","poi_type":"Mosque","global_id":"4e7d4edb-e46e-4c1a-966a-c54eeaf70e51"}},{"type":"Feature","id":"u_fc_poi_mosque.6804","geometry":{"type":"Point","coordinates":[3.34668,6.55651]},"geometry_name":"geom","properties":{"state_code":"LA","source":"OSGOF","name":"Ismuf Central Mosque","ward_code":"LASOIO11","poi_type":"Mosque","global_id":"4e8bac64-17eb-4f7a-a296-9baf5f60b2a3"}},{"type":"Feature","id":"u_fc_poi_mosque.6819","geometry":{"type":"Point","coordinates":[3.38705,6.53414]},"geometry_name":"geom","properties":{"state_code":"LA","source":"OSGOF","name":"Araromi Mosque Bariga","ward_code":"LASSMU14","poi_type":"Mosque","global_id":"4ec28d3d-10cc-42d8-84cd-2dca2cfe8188"}},{"type":"Feature","id":"u_fc_poi_mosque.6828","geometry":{"type":"Point","coordinates":[3.29607,6.55246]},"geometry_name":"geom","properties":{"state_code":"LA","source":"OSGOF","name":"Dar Ul Hulumil Central Mosque","ward_code":"LASOIO10","poi_type":"Mosque","global_id":"4eeb4bad-46ec-4cf6-959e-00d7bdc6643a"}},{"type":"Feature","id":"u_fc_poi_mosque.6832","geometry":{"type":"Point","coordinates":[3.31545,6.62434]},"geometry_name":"geom","properties":{"state_code":"LA","source":"OSGOF","name":"Asalam Mosque","ward_code":"LASAGG02","poi_type":"Mosque","global_id":"4ef1ae5a-61eb-406c-939a-8718bdc118a7"}},{"type":"Feature","id":"u_fc_poi_mosque.6850","geometry":{"type":"Point","coordinates":[3.38067,6.47617]},"geometry_name":"geom","properties":{"state_code":"LA","source":"OSGOF","name":"Enuanualai Mosque","ward_code":"LASLMD16","poi_type":"Mosque","global_id":"4f2f1407-e7cd-4863-8c10-98f3de58ba50"}},{"type":"Feature","id":"u_fc_poi_mosque.6891","geometry":{"type":"Point","coordinates":[3.15605,6.49061]},"geometry_name":"geom","properties":{"state_code":"LA","source":"OSGOF","name":"Ketu Central Mosque 2","ward_code":"LASOJO13","poi_type":"Mosque","global_id":"4faddcff-6773-4062-ac73-60e757a0e321"}},{"type":"Feature","id":"u_fc_poi_mosque.6979","geometry":{"type":"Point","coordinates":[3.39286,6.43522]},"geometry_name":"geom","properties":{"state_code":"LA","source":"OSGOF","name":"Friday Mosque Takway Bay","ward_code":"LASAPA02","poi_type":"Mosque","global_id":"50af88a9-14f4-4059-bdbe-0113f48cfe22"}},{"type":"Feature","id":"u_fc_poi_mosque.7001","geometry":{"type":"Point","coordinates":[3.34645,6.51281]},"geometry_name":"geom","properties":{"state_code":"LA","source":"OSGOF","name":"Oluwa Nipe Koyeni Mosque","ward_code":"LASMUN17","poi_type":"Mosque","global_id":"50ede2a2-40f6-4027-8eee-55a8bcb1db90"}},{"type":"Feature","id":"u_fc_poi_mosque.7020","geometry":{"type":"Point","coordinates":[3.38106,6.48182]},"geometry_name":"geom","properties":{"state_code":"LA","source":"OSGOF","name":"Ansar Ud Deen Mosque Ebute Metta","ward_code":"LASLMD13","poi_type":"Mosque","global_id":"510b98c6-6287-48bc-82df-7ffba74e1e6b"}},{"type":"Feature","id":"u_fc_poi_mosque.7087","geometry":{"type":"Point","coordinates":[3.3824,6.45987]},"geometry_name":"geom","properties":{"state_code":"LA","source":"OSGOF","name":"Idita Mosque","ward_code":"LASLID15","poi_type":"Mosque","global_id":"51a17dd4-c5ea-4b4d-9cce-877182b39015"}},{"type":"Feature","id":"u_fc_poi_mosque.7089","geometry":{"type":"Point","coordinates":[3.38868,6.50066]},"geometry_name":"geom","properties":{"state_code":"LA","source":"OSGOF","name":"Olalekan Olorunsogo Mosque","ward_code":"LASLMD12","poi_type":"Mosque","global_id":"51a52eb1-ce0f-4a6d-a738-3be2da21079a"}},{"type":"Feature","id":"u_fc_poi_mosque.7103","geometry":{"type":"Point","coordinates":[3.38123,6.40882]},"geometry_name":"geom","properties":{"state_code":"LA","source":"OSGOF","name":"Oloruntosin Mosque Abagbo","ward_code":"LASAPA02","poi_type":"Mosque","global_id":"51d04fa0-901e-41b1-827b-08eebebeaf9d"}},{"type":"Feature","id":"u_fc_poi_mosque.7131","geometry":{"type":"Point","coordinates":[3.37742,6.53417]},"geometry_name":"geom","properties":{"state_code":"LA","source":"OSGOF","name":"Okesuna Central Mosque","ward_code":"LASSMU11","poi_type":"Mosque","global_id":"521b34e9-b7e6-484a-a68a-73ca6af84d3e"}},{"type":"Feature","id":"u_fc_poi_mosque.7207","geometry":{"type":"Point","coordinates":[3.34862,6.47721]},"geometry_name":"geom","properties":{"state_code":"LA","source":"OSGOF","name":"Opefoluwa Central Mosque","ward_code":"LASAPA12","poi_type":"Mosque","global_id":"52f1a6ce-a125-41a4-a24f-986d6d74f57d"}},{"type":"Feature","id":"u_fc_poi_mosque.7281","geometry":{"type":"Point","coordinates":[3.40066,6.59261]},"geometry_name":"geom","properties":{"state_code":"LA","source":"OSGOF","name":"Awakesin Mosque","ward_code":"LASKSE03","poi_type":"Mosque","global_id":"53e65dac-c31d-4ecb-a7bd-7ef53ce41a18"}},{"type":"Feature","id":"u_fc_poi_mosque.7288","geometry":{"type":"Point","coordinates":[3.29302,6.52435]},"geometry_name":"geom","properties":{"state_code":"LA","source":"OSGOF","name":"Rahmotullah Mosque","ward_code":"LASOIO17","poi_type":"Mosque","global_id":"53f590de-cc25-4ac4-93ae-a2d4b07a3198"}},{"type":"Feature","id":"u_fc_poi_mosque.7341","geometry":{"type":"Point","coordinates":[3.28499,6.61032]},"geometry_name":"geom","properties":{"state_code":"LA","source":"OSGOF","name":"Community Mosque Sagari","ward_code":"LASAMO29","poi_type":"Mosque","global_id":"549644f7-cfc4-4185-84a3-71ece359d581"}},{"type":"Feature","id":"u_fc_poi_mosque.7344","geometry":{"type":"Point","coordinates":[3.39521,6.49924]},"geometry_name":"geom","properties":{"state_code":"LA","source":"OSGOF","name":"Ogooluwa Mosque","ward_code":"LASLMD02","poi_type":"Mosque","global_id":"549a2d64-3e0b-456a-9815-8e5e912c0ed5"}},{"type":"Feature","id":"u_fc_poi_mosque.7408","geometry":{"type":"Point","coordinates":[3.3265,6.49479]},"geometry_name":"geom","properties":{"state_code":"LA","source":"OSGOF","name":"Oloro Mosque Ijeshatedo","ward_code":"LASSUE02","poi_type":"Mosque","global_id":"553f5bb1-69f5-48af-a0ea-463426512d75"}},{"type":"Feature","id":"u_fc_poi_mosque.7446","geometry":{"type":"Point","coordinates":[3.26037,6.68492]},"geometry_name":"geom","properties":{"state_code":"LA","source":"OSGOF","name":"Alkaothar Islamic Mosque","ward_code":"LASAMO11","poi_type":"Mosque","global_id":"55cb2fa7-c5a6-40cd-a9e4-080dcee6e8e8"}},{"type":"Feature","id":"u_fc_poi_mosque.7450","geometry":{"type":"Point","coordinates":[3.35587,6.61122]},"geometry_name":"geom","properties":{"state_code":"LA","source":"OSGOF","name":"Alausa Central Mosque","ward_code":"LASIKA04","poi_type":"Mosque","global_id":"55d1853d-8d61-4016-bc15-5414a35fdd29"}},{"type":"Feature","id":"u_fc_poi_mosque.7542","geometry":{"type":"Point","coordinates":[3.37467,6.53794]},"geometry_name":"geom","properties":{"state_code":"LA","source":"OSGOF","name":"Idera Mosque","ward_code":"LASSMU13","poi_type":"Mosque","global_id":"57243966-1766-4643-a43b-e76c39d6a82b"}},{"type":"Feature","id":"u_fc_poi_mosque.7616","geometry":{"type":"Point","coordinates":[3.39619,6.53293]},"geometry_name":"geom","properties":{"state_code":"LA","source":"OSGOF","name":"Ja Maat Ansharu Nuru Islamiyat Mosque","ward_code":"LASSMU10","poi_type":"Mosque","global_id":"581015b2-69ba-422b-a875-27fde2882ddf"}},{"type":"Feature","id":"u_fc_poi_mosque.7628","geometry":{"type":"Point","coordinates":[3.33249,6.52271]},"geometry_name":"geom","properties":{"state_code":"LA","source":"OSGOF","name":"Araromi Mosque Ilasamaja","ward_code":"LASOIO13","poi_type":"Mosque","global_id":"582291a4-8a5f-432c-a1f7-88ecce138164"}},{"type":"Feature","id":"u_fc_poi_mosque.7645","geometry":{"type":"Point","coordinates":[3.32689,6.5296]},"geometry_name":"geom","properties":{"state_code":"LA","source":"OSGOF","name":"Jamma'at Ul Islamiyya Mosque","ward_code":"LASOIO05","poi_type":"Mosque","global_id":"585ce94b-3285-4b8e-8a1a-1356566fc4ee"}},{"type":"Feature","id":"u_fc_poi_mosque.7679","geometry":{"type":"Point","coordinates":[3.35823,6.47001]},"geometry_name":"geom","properties":{"state_code":"LA","source":"OSGOF","name":"Ifelodun Mosque Badia","ward_code":"LASAPA11","poi_type":"Mosque","global_id":"58b9bfb4-c2b2-4da6-acc2-6aca52fdcdd3"}},{"type":"Feature","id":"u_fc_poi_mosque.7702","geometry":{"type":"Point","coordinates":[3.12652,6.44023]},"geometry_name":"geom","properties":{"state_code":"LA","source":"OSGOF","name":"Ishagira Central Mosque","ward_code":"LASOJO02","poi_type":"Mosque","global_id":"58f9f8d2-9155-46a1-a702-fabdc44da24d"}},{"type":"Feature","id":"u_fc_poi_mosque.7745","geometry":{"type":"Point","coordinates":[3.34688,6.55793]},"geometry_name":"geom","properties":{"state_code":"LA","source":"OSGOF","name":"Aduramgba Central Mosque","ward_code":"LASOIO11","poi_type":"Mosque","global_id":"59740aa8-3191-4b89-a886-7cbd786df654"}},{"type":"Feature","id":"u_fc_poi_mosque.7761","geometry":{"type":"Point","coordinates":[3.32849,6.46471]},"geometry_name":"geom","properties":{"state_code":"LA","source":"OSGOF","name":"Araromi Mosque Alaba","ward_code":"LASATO14","poi_type":"Mosque","global_id":"5998be1c-6740-4b08-a279-3ed9493ab9a2"}},{"type":"Feature","id":"u_fc_poi_mosque.7828","geometry":{"type":"Point","coordinates":[3.37015,6.54843]},"geometry_name":"geom","properties":{"state_code":"LA","source":"OSGOF","name":"Olumakmi Obanikoro Mosque","ward_code":"LASSMU15","poi_type":"Mosque","global_id":"5a6450eb-902c-40af-8105-d523a4833800"}},{"type":"Feature","id":"u_fc_poi_mosque.7847","geometry":{"type":"Point","coordinates":[3.35869,6.52377]},"geometry_name":"geom","properties":{"state_code":"LA","source":"OSGOF","name":"Sababu Deen Mosque","ward_code":"LASMUN04","poi_type":"Mosque","global_id":"5aabf68c-2ad9-4a41-aa77-48db427c8375"}},{"type":"Feature","id":"u_fc_poi_mosque.7859","geometry":{"type":"Point","coordinates":[3.31953,6.52943]},"geometry_name":"geom","properties":{"state_code":"LA","source":"OSGOF","name":"Ike Oluwa Mosque","ward_code":"LASOIO05","poi_type":"Mosque","global_id":"5acdade5-1fa8-4720-a6a1-e06d9b402558"}},{"type":"Feature","id":"u_fc_poi_mosque.7905","geometry":{"type":"Point","coordinates":[3.32283,6.61169]},"geometry_name":"geom","properties":{"state_code":"LA","source":"OSGOF","name":"Oniloro Mosque","ward_code":"LASAGG05","poi_type":"Mosque","global_id":"5b69fdae-26a6-458d-8d93-3d9e1fa8d122"}},{"type":"Feature","id":"u_fc_poi_mosque.7907","geometry":{"type":"Point","coordinates":[3.34047,6.46686]},"geometry_name":"geom","properties":{"state_code":"LA","source":"OSGOF","name":"Turner Mosque","ward_code":"LASATO05","poi_type":"Mosque","global_id":"5b6fd86b-aa69-47db-b36b-12f4ce920396"}},{"type":"Feature","id":"u_fc_poi_mosque.7969","geometry":{"type":"Point","coordinates":[3.32002,6.61726]},"geometry_name":"geom","properties":{"state_code":"LA","source":"OSGOF","name":"Olorunkemi Mosque Oniwaya","ward_code":"LASAGG02","poi_type":"Mosque","global_id":"5c022bd3-b9af-44a0-b7de-ba65b6330efc"}},{"type":"Feature","id":"u_fc_poi_mosque.7999","geometry":{"type":"Point","coordinates":[3.36434,6.4124]},"geometry_name":"geom","properties":{"state_code":"LA","source":"OSGOF","name":"Muhammadiya Mosque Oko Ata Community","ward_code":"LASAPA02","poi_type":"Mosque","global_id":"5c489dbc-2393-4ad2-8640-42b987b470b5"}},{"type":"Feature","id":"u_fc_poi_mosque.8080","geometry":{"type":"Point","coordinates":[3.34171,6.48302]},"geometry_name":"geom","properties":{"state_code":"LA","source":"OSGOF","name":"Ifelodun Mosque Orile Iganmu","ward_code":"LASSUE19","poi_type":"Mosque","global_id":"5d212509-95ee-471a-a867-e16009c33b20"}},{"type":"Feature","id":"u_fc_poi_mosque.8160","geometry":{"type":"Point","coordinates":[3.33104,6.55763]},"geometry_name":"geom","properties":{"state_code":"LA","source":"OSGOF","name":"Central Mosque Makinde","ward_code":"LASOIO15","poi_type":"Mosque","global_id":"5e0471e1-a824-4dbe-aca2-ce2bba0c677d"}},{"type":"Feature","id":"u_fc_poi_mosque.8185","geometry":{"type":"Point","coordinates":[3.38137,6.53216]},"geometry_name":"geom","properties":{"state_code":"LA","source":"OSGOF","name":"Albarka Central Mosque","ward_code":"LASSMU11","poi_type":"Mosque","global_id":"5e47338d-d43c-4ece-9be2-51896b5442ed"}},{"type":"Feature","id":"u_fc_poi_mosque.8282","geometry":{"type":"Point","coordinates":[3.32344,6.62372]},"geometry_name":"geom","properties":{"state_code":"LA","source":"OSGOF","name":"Hausa Central Mosque Sango Agege","ward_code":"LASAGG01","poi_type":"Mosque","global_id":"5f77f023-ea34-44de-b007-67d0243fba41"}},{"type":"Feature","id":"u_fc_poi_mosque.8298","geometry":{"type":"Point","coordinates":[3.11311,6.46326]},"geometry_name":"geom","properties":{"state_code":"LA","source":"OSGOF","name":"Alhaji Abanini Central Mosque","ward_code":"LASOJO03","poi_type":"Mosque","global_id":"5f9a574c-b8bb-4db2-b2ec-eeb0735db395"}},{"type":"Feature","id":"u_fc_poi_mosque.8440","geometry":{"type":"Point","coordinates":[3.37171,6.53587]},"geometry_name":"geom","properties":{"state_code":"LA","source":"OSGOF","name":"Somolu Central Mosque","ward_code":"LASSMU12","poi_type":"Mosque","global_id":"613596f5-de87-4801-a12f-3478d827acff"}},{"type":"Feature","id":"u_fc_poi_mosque.8455","geometry":{"type":"Point","coordinates":[3.30326,6.52981]},"geometry_name":"geom","properties":{"state_code":"LA","source":"OSGOF","name":"Modinat Ibrahim Nasse Mosque","ward_code":"LASOIO03","poi_type":"Mosque","global_id":"6168ff89-6288-4bd4-8c92-b4f6eb7e0a9c"}},{"type":"Feature","id":"u_fc_poi_mosque.8500","geometry":{"type":"Point","coordinates":[3.35692,6.46239]},"geometry_name":"geom","properties":{"state_code":"LA","source":"OSGOF","name":"Alhaji Magbede Central Mosque","ward_code":"LASAPA01","poi_type":"Mosque","global_id":"62062296-637f-4ecd-b09b-885d522337ce"}},{"type":"Feature","id":"u_fc_poi_mosque.8592","geometry":{"type":"Point","coordinates":[3.32559,6.64398]},"geometry_name":"geom","properties":{"state_code":"LA","source":"OSGOF","name":"Olorunkemi Mosque Ifako","ward_code":"LASIOE06","poi_type":"Mosque","global_id":"62fdba63-50bc-438d-879b-690655a9839c"}},{"type":"Feature","id":"u_fc_poi_mosque.8661","geometry":{"type":"Point","coordinates":[3.34141,6.57915]},"geometry_name":"geom","properties":{"state_code":"LA","source":"OSGOF","name":"Maboju Street Mosque","ward_code":"LASOIO20","poi_type":"Mosque","global_id":"63f3403c-633e-4b56-b274-904cfe77aa2c"}},{"type":"Feature","id":"u_fc_poi_mosque.8709","geometry":{"type":"Point","coordinates":[3.34679,6.51743]},"geometry_name":"geom","properties":{"state_code":"LA","source":"OSGOF","name":"Olanrewaju Fiwakesin Mosque","ward_code":"LASMUN11","poi_type":"Mosque","global_id":"6492a047-1027-49ab-af3c-66d1fb864545"}},{"type":"Feature","id":"u_fc_poi_mosque.8712","geometry":{"type":"Point","coordinates":[3.11386,6.41206]},"geometry_name":"geom","properties":{"state_code":"LA","source":"OSGOF","name":"Ibode Central Mosque","ward_code":"LASOJO15","poi_type":"Mosque","global_id":"649b130c-5d10-4b68-8c64-f1b38b73514c"}},{"type":"Feature","id":"u_fc_poi_mosque.8767","geometry":{"type":"Point","coordinates":[3.3846,6.53549]},"geometry_name":"geom","properties":{"state_code":"LA","source":"OSGOF","name":"Oluwakemi Towo Towo Mosque","ward_code":"LASSMU14","poi_type":"Mosque","global_id":"65684c62-0ae0-4e1c-960d-ec189f293f2d"}},{"type":"Feature","id":"u_fc_poi_mosque.8805","geometry":{"type":"Point","coordinates":[3.27884,6.53257]},"geometry_name":"geom","properties":{"state_code":"LA","source":"OSGOF","name":"Agodo Central Mosque","ward_code":"LASAMO18","poi_type":"Mosque","global_id":"65b554b6-0f30-4cbc-98c8-aaa740be484f"}},{"type":"Feature","id":"u_fc_poi_mosque.8847","geometry":{"type":"Point","coordinates":[3.25919,6.54954]},"geometry_name":"geom","properties":{"state_code":"LA","source":"OSGOF","name":"Olorun Tosin Central Mosque","ward_code":"LASAMO25","poi_type":"Mosque","global_id":"6648e3ef-da93-4203-bd8a-438ca4372a9b"}},{"type":"Feature","id":"u_fc_poi_mosque.8849","geometry":{"type":"Point","coordinates":[3.34658,6.47002]},"geometry_name":"geom","properties":{"state_code":"LA","source":"OSGOF","name":"Amukoko Mosque 4","ward_code":"LASATO12","poi_type":"Mosque","global_id":"664fb71a-59fb-4893-b91b-44b5633f75f9"}},{"type":"Feature","id":"u_fc_poi_mosque.8885","geometry":{"type":"Point","coordinates":[3.35848,6.53004]},"geometry_name":"geom","properties":{"state_code":"LA","source":"OSGOF","name":"Ansar U Deen Central Mosque","ward_code":"LASMUN03","poi_type":"Mosque","global_id":"66a771d6-f104-4b7f-881e-47d9b3ce945f"}},{"type":"Feature","id":"u_fc_poi_mosque.9055","geometry":{"type":"Point","coordinates":[3.58074,6.48898]},"geometry_name":"geom","properties":{"state_code":"LA","source":"OSGOF","name":"Oke Ira Nla Central Mosque","ward_code":"LASEOA02","poi_type":"Mosque","global_id":"687625e7-b21b-41ff-8238-0dba9ee26f9a"}},{"type":"Feature","id":"u_fc_poi_mosque.9112","geometry":{"type":"Point","coordinates":[3.37818,6.54315]},"geometry_name":"geom","properties":{"state_code":"LA","source":"OSGOF","name":"Alahu Lateef Mosque","ward_code":"LASSMU06","poi_type":"Mosque","global_id":"692619bf-e30e-47aa-a23f-cbd23f1912ec"}},{"type":"Feature","id":"u_fc_poi_mosque.9117","geometry":{"type":"Point","coordinates":[3.34992,6.5191]},"geometry_name":"geom","properties":{"state_code":"LA","source":"OSGOF","name":"Idi Araba Central Mosque","ward_code":"LASMUN05","poi_type":"Mosque","global_id":"69308dad-9545-4406-b00f-8ecda6ca7288"}},{"type":"Feature","id":"u_fc_poi_mosque.9130","geometry":{"type":"Point","coordinates":[3.35743,6.6487]},"geometry_name":"geom","properties":{"state_code":"LA","source":"OSGOF","name":"Ogo Oluwa Mosque","ward_code":"LASIKA08","poi_type":"Mosque","global_id":"69548581-f8fe-49a3-a5a2-5999dc6e6ac4"}},{"type":"Feature","id":"u_fc_poi_mosque.9147","geometry":{"type":"Point","coordinates":[3.32745,6.51416]},"geometry_name":"geom","properties":{"state_code":"LA","source":"OSGOF","name":"Taoheed Central Mosque","ward_code":"LASOIO13","poi_type":"Mosque","global_id":"699218af-6a2b-4c65-b56b-70117dec78b9"}},{"type":"Feature","id":"u_fc_poi_mosque.9174","geometry":{"type":"Point","coordinates":[3.26078,6.44347]},"geometry_name":"geom","properties":{"state_code":"LA","source":"OSGOF","name":"Ar Rahman Central Mosque","ward_code":"LASAON08","poi_type":"Mosque","global_id":"69cc4e90-29e1-4a07-8a45-cd52aaec5458"}},{"type":"Feature","id":"u_fc_poi_mosque.9177","geometry":{"type":"Point","coordinates":[3.32251,6.44616]},"geometry_name":"geom","properties":{"state_code":"LA","source":"OSGOF","name":"Olodi Apapa Mosque 3","ward_code":"LASATO09","poi_type":"Mosque","global_id":"69d54c9e-bc23-4e89-8259-8a0274376faf"}},{"type":"Feature","id":"u_fc_poi_mosque.9194","geometry":{"type":"Point","coordinates":[3.32935,6.44476]},"geometry_name":"geom","properties":{"state_code":"LA","source":"OSGOF","name":"Ibafon Mosque 3","ward_code":"LASATO09","poi_type":"Mosque","global_id":"6a093ad9-83b9-4cac-a0c0-ad5f3fae0d74"}},{"type":"Feature","id":"u_fc_poi_mosque.9202","geometry":{"type":"Point","coordinates":[3.3705,6.53135]},"geometry_name":"geom","properties":{"state_code":"LA","source":"OSGOF","name":"Temidire Mosque Alade","ward_code":"LASSMU08","poi_type":"Mosque","global_id":"6a2ce2a4-ae2f-49df-bf2a-c930aceb86ec"}},{"type":"Feature","id":"u_fc_poi_mosque.9218","geometry":{"type":"Point","coordinates":[3.34064,6.45635]},"geometry_name":"geom","properties":{"state_code":"LA","source":"OSGOF","name":"Onibaba Mosque 1","ward_code":"LASATO02","poi_type":"Mosque","global_id":"6a5d8e7e-0cf8-419d-acb4-cfbcd67f6361"}},{"type":"Feature","id":"u_fc_poi_mosque.9242","geometry":{"type":"Point","coordinates":[3.43497,6.60903]},"geometry_name":"geom","properties":{"state_code":"LA","source":"OSGOF","name":"Odo Ogun Centre Mosque","ward_code":"LASKSE14","poi_type":"Mosque","global_id":"6aabdb64-67f1-484d-b342-1ff2b1d91d24"}},{"type":"Feature","id":"u_fc_poi_mosque.9294","geometry":{"type":"Point","coordinates":[3.17425,6.47475]},"geometry_name":"geom","properties":{"state_code":"LA","source":"OSGOF","name":"Afromedia Central Mosque","ward_code":"LASOJO01","poi_type":"Mosque","global_id":"6b3f9d64-44ba-4e1f-b30c-9d96a5f46ac1"}},{"type":"Feature","id":"u_fc_poi_mosque.9326","geometry":{"type":"Point","coordinates":[3.24733,6.49884]},"geometry_name":"geom","properties":{"state_code":"LA","source":"OSGOF","name":"Community Central Mosque Ijedodo","ward_code":"LASAMO24","poi_type":"Mosque","global_id":"6b840405-47c4-4668-b8ed-84c14fe360a7"}},{"type":"Feature","id":"u_fc_poi_mosque.9342","geometry":{"type":"Point","coordinates":[3.34945,6.52164]},"geometry_name":"geom","properties":{"state_code":"LA","source":"OSGOF","name":"Second Idi Araba Central Mosque","ward_code":"LASMUN11","poi_type":"Mosque","global_id":"6bc2a870-7ce6-4e3c-9534-17ee45c8b701"}},{"type":"Feature","id":"u_fc_poi_mosque.9370","geometry":{"type":"Point","coordinates":[4.11957,6.42429]},"geometry_name":"geom","properties":{"state_code":"LA","source":"OSGOF","name":"Shiribiwon Central Mosque","ward_code":"LASIUI11","poi_type":"Mosque","global_id":"6c2196c4-e30c-4666-b379-fcd07b52d271"}},{"type":"Feature","id":"u_fc_poi_mosque.9371","geometry":{"type":"Point","coordinates":[3.71292,6.67768]},"geometry_name":"geom","properties":{"state_code":"LA","source":"OSGOF","name":"Odo Ayandelu Mosque","ward_code":"LASEPE05","poi_type":"Mosque","global_id":"6c2dcd27-825f-4bb2-8514-c0a2b9555a99"}},{"type":"Feature","id":"u_fc_poi_mosque.9464","geometry":{"type":"Point","coordinates":[3.34118,6.44955]},"geometry_name":"geom","properties":{"state_code":"LA","source":"OSGOF","name":"Olodi Apapa Mosque 4","ward_code":"LASATO13","poi_type":"Mosque","global_id":"6d2f6be4-00d0-4acd-9353-d7826ffad570"}},{"type":"Feature","id":"u_fc_poi_mosque.9473","geometry":{"type":"Point","coordinates":[3.34204,6.46357]},"geometry_name":"geom","properties":{"state_code":"LA","source":"OSGOF","name":"Amukoko Mosque 1","ward_code":"LASATO05","poi_type":"Mosque","global_id":"6d408937-366f-4fed-9880-711068f3fb1c"}},{"type":"Feature","id":"u_fc_poi_mosque.9516","geometry":{"type":"Point","coordinates":[3.35742,6.50312]},"geometry_name":"geom","properties":{"state_code":"LA","source":"OSGOF","name":"Araromi Mosque Surulere","ward_code":"LASSUE23","poi_type":"Mosque","global_id":"6d9c6479-4797-4398-9227-e82812de883a"}},{"type":"Feature","id":"u_fc_poi_mosque.9543","geometry":{"type":"Point","coordinates":[3.36636,6.5256]},"geometry_name":"geom","properties":{"state_code":"LA","source":"OSGOF","name":"Kajola Central Mosque","ward_code":"LASMUN02","poi_type":"Mosque","global_id":"6de289aa-d173-4c54-a396-38357c833a3c"}},{"type":"Feature","id":"u_fc_poi_mosque.9549","geometry":{"type":"Point","coordinates":[3.37059,6.57784]},"geometry_name":"geom","properties":{"state_code":"LA","source":"OSGOF","name":"Wasimi Community Central Mosque","ward_code":"LASIKA18","poi_type":"Mosque","global_id":"6df273a9-7687-4847-a94e-b3008d1caacd"}},{"type":"Feature","id":"u_fc_poi_mosque.9562","geometry":{"type":"Point","coordinates":[3.5237,6.43443]},"geometry_name":"geom","properties":{"state_code":"LA","source":"OSGOF","name":"Igbo Efon Central Mosque","ward_code":"LASEOA15","poi_type":"Mosque","global_id":"6e1278b9-49b5-4e2d-a65d-540ef19d7f5c"}},{"type":"Feature","id":"u_fc_poi_mosque.9576","geometry":{"type":"Point","coordinates":[3.23794,6.58766]},"geometry_name":"geom","properties":{"state_code":"LA","source":"OSGOF","name":"Fiwakesin Central Mosque","ward_code":"LASAMO15","poi_type":"Mosque","global_id":"6e350f87-8c92-48bc-ab3f-b05b947cf92f"}},{"type":"Feature","id":"u_fc_poi_mosque.9582","geometry":{"type":"Point","coordinates":[3.28174,6.46654]},"geometry_name":"geom","properties":{"state_code":"LA","source":"OSGOF","name":"Central Mosque Fisebillilai","ward_code":"LASAON14","poi_type":"Mosque","global_id":"6e535511-385c-4f28-b58e-1c120d490307"}},{"type":"Feature","id":"u_fc_poi_mosque.9623","geometry":{"type":"Point","coordinates":[3.36139,6.52389]},"geometry_name":"geom","properties":{"state_code":"LA","source":"OSGOF","name":"Nawarudeen Mosque","ward_code":"LASMUN04","poi_type":"Mosque","global_id":"6eb7d617-c954-4a4d-b184-f8cf2f8f5117"}},{"type":"Feature","id":"u_fc_poi_mosque.9696","geometry":{"type":"Point","coordinates":[3.39636,6.4536]},"geometry_name":"geom","properties":{"state_code":"LA","source":"OSGOF","name":"The Brazilian Mosque","ward_code":"LASLID16","poi_type":"Mosque","global_id":"6f8a248c-d2e7-448d-a19b-fa256775727b"}},{"type":"Feature","id":"u_fc_poi_mosque.9700","geometry":{"type":"Point","coordinates":[3.34622,6.46959]},"geometry_name":"geom","properties":{"state_code":"LA","source":"OSGOF","name":"Amukoko Mosque 3","ward_code":"LASATO12","poi_type":"Mosque","global_id":"6f918042-6dee-458e-9460-2de959e067ac"}},{"type":"Feature","id":"u_fc_poi_mosque.9703","geometry":{"type":"Point","coordinates":[3.35163,6.48824]},"geometry_name":"geom","properties":{"state_code":"LA","source":"OSGOF","name":"Iponri Estate Central Mosque","ward_code":"LASSUE11","poi_type":"Mosque","global_id":"6f9b7265-ee52-40d4-a973-445f4fd579e1"}},{"type":"Feature","id":"u_fc_poi_mosque.9796","geometry":{"type":"Point","coordinates":[3.30859,6.61984]},"geometry_name":"geom","properties":{"state_code":"LA","source":"OSGOF","name":"Olorungbebe Mosque 2","ward_code":"LASAGG10","poi_type":"Mosque","global_id":"70d7071c-6d81-4160-b0a3-0533175246ca"}},{"type":"Feature","id":"u_fc_poi_mosque.9815","geometry":{"type":"Point","coordinates":[3.71586,6.51672]},"geometry_name":"geom","properties":{"state_code":"LA","source":"OSGOF","name":"Ladeba Community Central Mosque","ward_code":"LASEPE12","poi_type":"Mosque","global_id":"71266fae-3246-4c5a-aa79-7029cd1ebfea"}},{"type":"Feature","id":"u_fc_poi_mosque.9851","geometry":{"type":"Point","coordinates":[3.40873,6.58067]},"geometry_name":"geom","properties":{"state_code":"LA","source":"OSGOF","name":"Agboyi Central Mosque","ward_code":"LASKSE02","poi_type":"Mosque","global_id":"71b8670f-8194-4475-9bb8-65591df24229"}},{"type":"Feature","id":"u_fc_poi_mosque.9911","geometry":{"type":"Point","coordinates":[3.3178,6.52828]},"geometry_name":"geom","properties":{"state_code":"LA","source":"OSGOF","name":"Pako Busstop Mosque","ward_code":"LASOIO14","poi_type":"Mosque","global_id":"72575661-ee6b-41e8-b4bf-a1156b038c97"}},{"type":"Feature","id":"u_fc_poi_mosque.9913","geometry":{"type":"Point","coordinates":[3.32976,6.44443]},"geometry_name":"geom","properties":{"state_code":"LA","source":"OSGOF","name":"Ibafon Mosque 2","ward_code":"LASATO09","poi_type":"Mosque","global_id":"72603b93-fa8a-4475-8391-a7b4749c0717"}},{"type":"Feature","id":"u_fc_poi_mosque.9928","geometry":{"type":"Point","coordinates":[3.32694,6.53617]},"geometry_name":"geom","properties":{"state_code":"LA","source":"OSGOF","name":"Ashiriabo Mosque","ward_code":"LASOIO06","poi_type":"Mosque","global_id":"72a47ce4-fb5a-4774-9cf0-b6b27add271c"}},{"type":"Feature","id":"u_fc_poi_mosque.9934","geometry":{"type":"Point","coordinates":[3.34423,6.57066]},"geometry_name":"geom","properties":{"state_code":"LA","source":"OSGOF","name":"Opeloyeru Mosque Ladipo","ward_code":"LASOIO08","poi_type":"Mosque","global_id":"72bdca18-0d68-4650-ab05-feb0a3535c4b"}},{"type":"Feature","id":"u_fc_poi_mosque.9939","geometry":{"type":"Point","coordinates":[3.35022,6.45212]},"geometry_name":"geom","properties":{"state_code":"LA","source":"OSGOF","name":"Olodi Apapa Mosque 1","ward_code":"LASATO16","poi_type":"Mosque","global_id":"72c6b94a-279a-4152-b26f-191b27540567"}},{"type":"Feature","id":"u_fc_poi_mosque.9967","geometry":{"type":"Point","coordinates":[3.39301,6.54401]},"geometry_name":"geom","properties":{"state_code":"LA","source":"OSGOF","name":"Albarka Mosque 2","ward_code":"LASSMU03","poi_type":"Mosque","global_id":"730f6397-091d-4ec4-aeef-48681891d371"}},{"type":"Feature","id":"u_fc_poi_mosque.9995","geometry":{"type":"Point","coordinates":[3.39765,6.45557]},"geometry_name":"geom","properties":{"state_code":"LA","source":"OSGOF","name":"Mumuni Oloko Mosque","ward_code":"LASLID16","poi_type":"Mosque","global_id":"736f26eb-1595-45c8-8867-ae74f47a83bc"}},{"type":"Feature","id":"u_fc_poi_mosque.10062","geometry":{"type":"Point","coordinates":[3.35654,6.50692]},"geometry_name":"geom","properties":{"state_code":"LA","source":"OSGOF","name":"Oluwalowi Central Mosque","ward_code":"LASSUE06","poi_type":"Mosque","global_id":"741ce4b0-d2d8-4cd6-ad79-6583f6700beb"}},{"type":"Feature","id":"u_fc_poi_mosque.10080","geometry":{"type":"Point","coordinates":[3.98506,6.67707]},"geometry_name":"geom","properties":{"state_code":"LA","source":"OSGOF","name":"Oke Magba Central Mosque","ward_code":"LASEPE15","poi_type":"Mosque","global_id":"7443e5b2-347d-4afb-8120-1be8c5e53fdd"}},{"type":"Feature","id":"u_fc_poi_mosque.10086","geometry":{"type":"Point","coordinates":[3.37584,6.52731]},"geometry_name":"geom","properties":{"state_code":"LA","source":"OSGOF","name":"Asbiaro Central Mosque","ward_code":"LASLMD01","poi_type":"Mosque","global_id":"744fe865-7f10-4fad-aaa6-37a6d366d4f9"}},{"type":"Feature","id":"u_fc_poi_mosque.10097","geometry":{"type":"Point","coordinates":[3.30987,6.55234]},"geometry_name":"geom","properties":{"state_code":"LA","source":"OSGOF","name":"Ogunde Street Mosque","ward_code":"LASOIO12","poi_type":"Mosque","global_id":"74686304-eaf0-4e1a-b7d2-94cc8fa5b15f"}},{"type":"Feature","id":"u_fc_poi_mosque.10119","geometry":{"type":"Point","coordinates":[3.15895,6.45341]},"geometry_name":"geom","properties":{"state_code":"LA","source":"OSGOF","name":"Ike Oluwapo Mosque","ward_code":"LASOJO14","poi_type":"Mosque","global_id":"749aea82-27a6-48c8-ac60-d043425f241b"}},{"type":"Feature","id":"u_fc_poi_mosque.10154","geometry":{"type":"Point","coordinates":[3.3567,6.46733]},"geometry_name":"geom","properties":{"state_code":"LA","source":"OSGOF","name":"Obale Central Mosque","ward_code":"LASAPA06","poi_type":"Mosque","global_id":"74ed37bd-a51d-4496-a073-83fcc892f84c"}},{"type":"Feature","id":"u_fc_poi_mosque.10187","geometry":{"type":"Point","coordinates":[3.21524,6.45387]},"geometry_name":"geom","properties":{"state_code":"LA","source":"OSGOF","name":"Mfib International Central Mosque","ward_code":"LASOJO08","poi_type":"Mosque","global_id":"75455a35-e258-41b2-aa9c-70dcf14663e6"}},{"type":"Feature","id":"u_fc_poi_mosque.10193","geometry":{"type":"Point","coordinates":[3.32311,6.52774]},"geometry_name":"geom","properties":{"state_code":"LA","source":"OSGOF","name":"Ahmadiyya Muslim Jamm'at Mosque","ward_code":"LASOIO14","poi_type":"Mosque","global_id":"754f59ed-bba6-42e6-b509-53cc59f75a60"}},{"type":"Feature","id":"u_fc_poi_mosque.10266","geometry":{"type":"Point","coordinates":[3.21197,6.45323]},"geometry_name":"geom","properties":{"state_code":"LA","source":"OSGOF","name":"Ira Quarter Central Mosque","ward_code":"LASOJO08","poi_type":"Mosque","global_id":"764afd28-d598-4e1e-81e6-4edb9117502b"}},{"type":"Feature","id":"u_fc_poi_mosque.10271","geometry":{"type":"Point","coordinates":[3.34505,6.55649]},"geometry_name":"geom","properties":{"state_code":"LA","source":"OSGOF","name":"Owoseni Mosque Orile Oshodi","ward_code":"LASOIO11","poi_type":"Mosque","global_id":"765fd182-7a4e-4115-b076-5552e45d9552"}},{"type":"Feature","id":"u_fc_poi_mosque.10336","geometry":{"type":"Point","coordinates":[3.35646,6.60953]},"geometry_name":"geom","properties":{"state_code":"LA","source":"OSGOF","name":"Alausa Mosque","ward_code":"LASIKA04","poi_type":"Mosque","global_id":"77065a1c-5e12-4bcc-8c67-1ab2646d23c0"}},{"type":"Feature","id":"u_fc_poi_mosque.10345","geometry":{"type":"Point","coordinates":[3.35877,6.52886]},"geometry_name":"geom","properties":{"state_code":"LA","source":"OSGOF","name":"Temidayo Central Mosque","ward_code":"LASMUN03","poi_type":"Mosque","global_id":"77210145-85f7-4657-9713-bb6aac261fc9"}},{"type":"Feature","id":"u_fc_poi_mosque.10382","geometry":{"type":"Point","coordinates":[3.39124,6.53727]},"geometry_name":"geom","properties":{"state_code":"LA","source":"OSGOF","name":"Bosere Mosque Bariga","ward_code":"LASSMU03","poi_type":"Mosque","global_id":"779c486d-3ab5-4f47-ba68-eb4b1f165dd1"}},{"type":"Feature","id":"u_fc_poi_mosque.10412","geometry":{"type":"Point","coordinates":[3.38933,6.45621]},"geometry_name":"geom","properties":{"state_code":"LA","source":"OSGOF","name":"Quranic Central Mosque","ward_code":"LASLID02","poi_type":"Mosque","global_id":"78008c0d-2394-404b-b4a1-23c7be5a9b82"}},{"type":"Feature","id":"u_fc_poi_mosque.10418","geometry":{"type":"Point","coordinates":[3.32777,6.46034]},"geometry_name":"geom","properties":{"state_code":"LA","source":"OSGOF","name":"Layeni Central Mosque","ward_code":"LASATO14","poi_type":"Mosque","global_id":"780d9c95-a069-4ea1-8aee-fe5e0644cb49"}},{"type":"Feature","id":"u_fc_poi_mosque.10420","geometry":{"type":"Point","coordinates":[3.33826,6.51799]},"geometry_name":"geom","properties":{"state_code":"LA","source":"OSGOF","name":"Albarika Central Mosque","ward_code":"LASMUN17","poi_type":"Mosque","global_id":"781350fe-4130-4143-8a8a-89c6fe5ac301"}},{"type":"Feature","id":"u_fc_poi_mosque.10505","geometry":{"type":"Point","coordinates":[3.41792,6.44494]},"geometry_name":"geom","properties":{"state_code":"LA","source":"OSGOF","name":"Syrian Mosque","ward_code":"LASEOA16","poi_type":"Mosque","global_id":"79257787-fdf8-4ffa-8f22-12a1dcc5b40e"}},{"type":"Feature","id":"u_fc_poi_mosque.10519","geometry":{"type":"Point","coordinates":[3.36104,6.51546]},"geometry_name":"geom","properties":{"state_code":"LA","source":"OSGOF","name":"Nasrul Lahi Faith Mosque","ward_code":"LASMUN05","poi_type":"Mosque","global_id":"794b58bb-ff98-44bd-9b5d-e2870c39673d"}},{"type":"Feature","id":"u_fc_poi_mosque.10520","geometry":{"type":"Point","coordinates":[3.32424,6.62284]},"geometry_name":"geom","properties":{"state_code":"LA","source":"OSGOF","name":"Seriki Mosque","ward_code":"LASAGG13","poi_type":"Mosque","global_id":"79532452-9f61-4c8f-b509-bfaacdbd94c8"}},{"type":"Feature","id":"u_fc_poi_mosque.10530","geometry":{"type":"Point","coordinates":[3.33685,6.49601]},"geometry_name":"geom","properties":{"state_code":"LA","source":"OSGOF","name":"Oluwakemi Mosque Aguda","ward_code":"LASSUE12","poi_type":"Mosque","global_id":"79809052-7d57-41cb-9cea-e33986a5c799"}},{"type":"Feature","id":"u_fc_poi_mosque.10564","geometry":{"type":"Point","coordinates":[3.32699,6.50811]},"geometry_name":"geom","properties":{"state_code":"LA","source":"OSGOF","name":"Ansar Ud Deen Central Mosque Itire","ward_code":"LASMUN13","poi_type":"Mosque","global_id":"79ea1b77-995f-455b-bdfb-03bdd6482fce"}},{"type":"Feature","id":"u_fc_poi_mosque.10621","geometry":{"type":"Point","coordinates":[3.3285,6.5571]},"geometry_name":"geom","properties":{"state_code":"LA","source":"OSGOF","name":"Mufis Mosque","ward_code":"LASOIO15","poi_type":"Mosque","global_id":"7ab1529c-b5fa-4391-bc57-1ecc7ddaff28"}},{"type":"Feature","id":"u_fc_poi_mosque.10711","geometry":{"type":"Point","coordinates":[3.51957,6.45315]},"geometry_name":"geom","properties":{"state_code":"LA","source":"OSGOF","name":"Ojomu Central Mosque","ward_code":"LASEOA04","poi_type":"Mosque","global_id":"7bab9c3f-5ace-42de-94a9-ebb1caefb2a3"}},{"type":"Feature","id":"u_fc_poi_mosque.10722","geometry":{"type":"Point","coordinates":[3.26653,6.54546]},"geometry_name":"geom","properties":{"state_code":"LA","source":"OSGOF","name":"Ikotun Central Mosque","ward_code":"LASAMO25","poi_type":"Mosque","global_id":"7bc6a64e-2c9c-4ecf-95aa-c514ca825fa7"}},{"type":"Feature","id":"u_fc_poi_mosque.10769","geometry":{"type":"Point","coordinates":[3.50384,6.62064]},"geometry_name":"geom","properties":{"state_code":"LA","source":"OSGOF","name":"Oriwu Central Mosque","ward_code":"LASIKU20","poi_type":"Mosque","global_id":"7c398ba9-f87c-4d61-b583-846796b3b620"}},{"type":"Feature","id":"u_fc_poi_mosque.10814","geometry":{"type":"Point","coordinates":[3.2282,6.45898]},"geometry_name":"geom","properties":{"state_code":"LA","source":"OSGOF","name":"Gojere Central Mosque","ward_code":"LASOJO08","poi_type":"Mosque","global_id":"7cd3838e-baaf-4435-86b2-822fd7a0399c"}},{"type":"Feature","id":"u_fc_poi_mosque.10844","geometry":{"type":"Point","coordinates":[3.38647,6.49712]},"geometry_name":"geom","properties":{"state_code":"LA","source":"OSGOF","name":"Makoko Central Mosque","ward_code":"LASLMD12","poi_type":"Mosque","global_id":"7d3283dc-9d65-40bd-bbfc-ffac7fb095e2"}},{"type":"Feature","id":"u_fc_poi_mosque.10848","geometry":{"type":"Point","coordinates":[3.3128,6.63169]},"geometry_name":"geom","properties":{"state_code":"LA","source":"OSGOF","name":"Olorungbebe Mosque 1","ward_code":"LASAGG12","poi_type":"Mosque","global_id":"7d3fe3ab-9e71-4938-824d-cec3d5426377"}},{"type":"Feature","id":"u_fc_poi_mosque.10896","geometry":{"type":"Point","coordinates":[3.31585,6.62789]},"geometry_name":"geom","properties":{"state_code":"LA","source":"OSGOF","name":"Olorunkemi Mosque Magbon","ward_code":"LASAGG07","poi_type":"Mosque","global_id":"7db9692a-da0e-4f6c-8842-f0aced604a7e"}},{"type":"Feature","id":"u_fc_poi_mosque.11028","geometry":{"type":"Point","coordinates":[3.29989,6.62544]},"geometry_name":"geom","properties":{"state_code":"LA","source":"OSGOF","name":"Ike Olwa Mosque Isale Odo","ward_code":"LASAGG04","poi_type":"Mosque","global_id":"7f2d9696-9055-45dd-8cda-19dc48215b25"}},{"type":"Feature","id":"u_fc_poi_mosque.11052","geometry":{"type":"Point","coordinates":[3.33159,6.618]},"geometry_name":"geom","properties":{"state_code":"LA","source":"OSGOF","name":"Ifelodun Mosque Ajegunle","ward_code":"LASAGG13","poi_type":"Mosque","global_id":"7f7a21c2-1535-45fb-8d49-b7f55a5fb602"}},{"type":"Feature","id":"u_fc_poi_mosque.11115","geometry":{"type":"Point","coordinates":[3.47479,6.43845]},"geometry_name":"geom","properties":{"state_code":"LA","source":"OSGOF","name":"Lekki Central Mosque","ward_code":"LASEOA10","poi_type":"Mosque","global_id":"7ffd604d-f197-433f-8ff2-d138ade2ad69"}},{"type":"Feature","id":"u_fc_poi_mosque.11210","geometry":{"type":"Point","coordinates":[3.14296,6.41988]},"geometry_name":"geom","properties":{"state_code":"LA","source":"OSGOF","name":"Ojorin Central Mosque","ward_code":"LASOJO09","poi_type":"Mosque","global_id":"81268e59-53f2-419a-b22a-7825b3bfbb12"}},{"type":"Feature","id":"u_fc_poi_mosque.11270","geometry":{"type":"Point","coordinates":[3.33543,6.4413]},"geometry_name":"geom","properties":{"state_code":"LA","source":"OSGOF","name":"Owoseni Mosque Ibafon","ward_code":"LASATO04","poi_type":"Mosque","global_id":"81bd08cd-70e8-4866-8975-3090b810af5f"}},{"type":"Feature","id":"u_fc_poi_mosque.11306","geometry":{"type":"Point","coordinates":[3.34333,6.57209]},"geometry_name":"geom","properties":{"state_code":"LA","source":"OSGOF","name":"Jundullah L Islamiyya Mosque","ward_code":"LASOIO08","poi_type":"Mosque","global_id":"820d77d8-3862-4c51-a08c-d2b18bb56444"}},{"type":"Feature","id":"u_fc_poi_mosque.11307","geometry":{"type":"Point","coordinates":[3.63914,6.42539]},"geometry_name":"geom","properties":{"state_code":"LA","source":"OSGOF","name":"Mopo Ijebu Central Mosque","ward_code":"LASIUI04","poi_type":"Mosque","global_id":"820fd1a7-be75-40d6-bf81-655247f74b47"}},{"type":"Feature","id":"u_fc_poi_mosque.11474","geometry":{"type":"Point","coordinates":[3.3146,6.6128]},"geometry_name":"geom","properties":{"state_code":"LA","source":"OSGOF","name":"Dopemu Central Mosque","ward_code":"LASAGG02","poi_type":"Mosque","global_id":"840a2882-e134-4e46-a1e6-1c911663fe91"}},{"type":"Feature","id":"u_fc_poi_mosque.11481","geometry":{"type":"Point","coordinates":[3.34855,6.51777]},"geometry_name":"geom","properties":{"state_code":"LA","source":"OSGOF","name":"Alhaji Bagudu Mosque","ward_code":"LASMUN11","poi_type":"Mosque","global_id":"84225846-b068-41b4-9cb9-0cc410ae5e86"}},{"type":"Feature","id":"u_fc_poi_mosque.11497","geometry":{"type":"Point","coordinates":[3.3439,6.46405]},"geometry_name":"geom","properties":{"state_code":"LA","source":"OSGOF","name":"Nurudeen Mosque Amukoko","ward_code":"LASATO05","poi_type":"Mosque","global_id":"844b2c56-5113-4042-806b-730bebd24fc4"}},{"type":"Feature","id":"u_fc_poi_mosque.11634","geometry":{"type":"Point","coordinates":[3.32545,6.62255]},"geometry_name":"geom","properties":{"state_code":"LA","source":"OSGOF","name":"Agege Central Mosque","ward_code":"LASAGG06","poi_type":"Mosque","global_id":"85de335d-43ce-47a3-bff2-1878f2e09fe5"}},{"type":"Feature","id":"u_fc_poi_mosque.11635","geometry":{"type":"Point","coordinates":[3.558926,6.428418]},"geometry_name":"geom","properties":{"state_code":"LA","source":"eHA_Polio","name":"Anuoluwa Central Mosque","ward_code":"LASEOA08","poi_type":"Mosque","global_id":"85de5784-f277-4026-93d4-c0150b1b80e6"}},{"type":"Feature","id":"u_fc_poi_mosque.11651","geometry":{"type":"Point","coordinates":[3.97153,6.49835]},"geometry_name":"geom","properties":{"state_code":"LA","source":"OSGOF","name":"Emu Community Central Mosque","ward_code":"LASIUI07","poi_type":"Mosque","global_id":"86174ac4-f57c-4d24-b879-fa2e78402414"}},{"type":"Feature","id":"u_fc_poi_mosque.11657","geometry":{"type":"Point","coordinates":[3.39033,6.46067]},"geometry_name":"geom","properties":{"state_code":"LA","source":"OSGOF","name":"Ansqar Ul Islam Mosque","ward_code":"LASLID10","poi_type":"Mosque","global_id":"863018a1-ea99-4a01-9672-8d85e9a236a7"}},{"type":"Feature","id":"u_fc_poi_mosque.11661","geometry":{"type":"Point","coordinates":[3.25203,6.62135]},"geometry_name":"geom","properties":{"state_code":"LA","source":"OSGOF","name":"Ikola Central Mosque","ward_code":"LASAMO07","poi_type":"Mosque","global_id":"863a7537-50be-45b4-916c-06b82fe5875c"}},{"type":"Feature","id":"u_fc_poi_mosque.11665","geometry":{"type":"Point","coordinates":[3.54841,6.44983]},"geometry_name":"geom","properties":{"state_code":"LA","source":"OSGOF","name":"Ikota Central Mosque","ward_code":"LASEOA04","poi_type":"Mosque","global_id":"8646463a-823e-48f4-9279-8a59f8f7db66"}},{"type":"Feature","id":"u_fc_poi_mosque.11739","geometry":{"type":"Point","coordinates":[3.34637,6.4648]},"geometry_name":"geom","properties":{"state_code":"LA","source":"OSGOF","name":"Amukoko Central Mosque","ward_code":"LASATO05","poi_type":"Mosque","global_id":"87286638-c29e-40b0-b50c-77bf20886111"}},{"type":"Feature","id":"u_fc_poi_mosque.11783","geometry":{"type":"Point","coordinates":[3.39278,6.54018]},"geometry_name":"geom","properties":{"state_code":"LA","source":"OSGOF","name":"Jagunmolu Central Mosque","ward_code":"LASSMU16","poi_type":"Mosque","global_id":"87990c73-8f2c-4ac3-8f0f-1ea08a0bbfdf"}},{"type":"Feature","id":"u_fc_poi_mosque.11795","geometry":{"type":"Point","coordinates":[3.91455,6.62775]},"geometry_name":"geom","properties":{"state_code":"LA","source":"OSGOF","name":"Sala Community Mosque","ward_code":"LASEPE09","poi_type":"Mosque","global_id":"87bff341-335c-4322-8792-6ee5b7329023"}},{"type":"Feature","id":"u_fc_poi_mosque.11849","geometry":{"type":"Point","coordinates":[3.3784,6.4816]},"geometry_name":"geom","properties":{"state_code":"LA","source":"OSGOF","name":"Ololodana Mosque","ward_code":"LASLMD08","poi_type":"Mosque","global_id":"88449bb1-efa8-4231-8d4a-337cf1445ed9"}},{"type":"Feature","id":"u_fc_poi_mosque.11879","geometry":{"type":"Point","coordinates":[3.30403,6.61067]},"geometry_name":"geom","properties":{"state_code":"LA","source":"OSGOF","name":"Oladiya Mosque","ward_code":"LASAMO12","poi_type":"Mosque","global_id":"88a617d9-a7b7-48c6-aa6c-ebe92e46d923"}},{"type":"Feature","id":"u_fc_poi_mosque.11927","geometry":{"type":"Point","coordinates":[3.30698,6.55419]},"geometry_name":"geom","properties":{"state_code":"LA","source":"OSGOF","name":"Olorunkemi Mosque Ageke","ward_code":"LASOIO02","poi_type":"Mosque","global_id":"89403366-8d25-4b88-8614-ca8c9563dcfb"}},{"type":"Feature","id":"u_fc_poi_mosque.11984","geometry":{"type":"Point","coordinates":[3.38844,6.48427]},"geometry_name":"geom","properties":{"state_code":"LA","source":"OSGOF","name":"Ibikunle Ojikutu Mem Central Mosque","ward_code":"LASLMD07","poi_type":"Mosque","global_id":"89dbbde5-0ae7-40d3-83f1-490be941a111"}},{"type":"Feature","id":"u_fc_poi_mosque.11991","geometry":{"type":"Point","coordinates":[3.39682,6.60804]},"geometry_name":"geom","properties":{"state_code":"LA","source":"OSGOF","name":"Mile 12 Central Mosque","ward_code":"LASKSE20","poi_type":"Mosque","global_id":"89e89912-d2a8-4254-97f7-b8e9439bdea0"}},{"type":"Feature","id":"u_fc_poi_mosque.11997","geometry":{"type":"Point","coordinates":[3.35759,6.46467]},"geometry_name":"geom","properties":{"state_code":"LA","source":"OSGOF","name":"Ojora Central Mosque","ward_code":"LASAPA01","poi_type":"Mosque","global_id":"89f6f15f-1ecd-4cc2-a6bf-3cf981beac78"}},{"type":"Feature","id":"u_fc_poi_mosque.12005","geometry":{"type":"Point","coordinates":[3.33555,6.46025]},"geometry_name":"geom","properties":{"state_code":"LA","source":"OSGOF","name":"Oloro Mosque Layeni","ward_code":"LASATO03","poi_type":"Mosque","global_id":"8a0a7fc7-0691-4cf3-8e47-322279cf09e7"}},{"type":"Feature","id":"u_fc_poi_mosque.12007","geometry":{"type":"Point","coordinates":[3.34543,6.64028]},"geometry_name":"geom","properties":{"state_code":"LA","source":"OSGOF","name":"Morkaz Onikewunla Mosque","ward_code":"LASIKA01","poi_type":"Mosque","global_id":"8a0cef76-2ae5-4261-a90a-46aea0f20395"}},{"type":"Feature","id":"u_fc_poi_mosque.12041","geometry":{"type":"Point","coordinates":[3.34217,6.45819]},"geometry_name":"geom","properties":{"state_code":"LA","source":"OSGOF","name":"Onibaba Mosque 2","ward_code":"LASATO02","poi_type":"Mosque","global_id":"8a674f58-d10c-4341-9a00-8c656453d351"}},{"type":"Feature","id":"u_fc_poi_mosque.12056","geometry":{"type":"Point","coordinates":[3.39235,6.54602]},"geometry_name":"geom","properties":{"state_code":"LA","source":"OSGOF","name":"Tawakalitu Central Mosque Gbagada Apelehin","ward_code":"LASSMU03","poi_type":"Mosque","global_id":"8aa73d2d-8f5d-4a41-9464-95bd25995409"}},{"type":"Feature","id":"u_fc_poi_mosque.12123","geometry":{"type":"Point","coordinates":[3.36287,6.5321]},"geometry_name":"geom","properties":{"state_code":"LA","source":"OSGOF","name":"Amadiya Muslim Centenary Esin Mosque","ward_code":"LASMUN10","poi_type":"Mosque","global_id":"8b6e9f77-0faa-4ce8-857c-ad164b361845"}},{"type":"Feature","id":"u_fc_poi_mosque.12161","geometry":{"type":"Point","coordinates":[3.37475,6.61692]},"geometry_name":"geom","properties":{"state_code":"LA","source":"OSGOF","name":"Oluwakemi Mosque Shangisha","ward_code":"LASKSE21","poi_type":"Mosque","global_id":"8bd67cec-c5a2-474b-ba02-129b93e4a5ff"}},{"type":"Feature","id":"u_fc_poi_mosque.12169","geometry":{"type":"Point","coordinates":[3.40807,6.5817]},"geometry_name":"geom","properties":{"state_code":"LA","source":"OSGOF","name":"Agboyi 3 Central Mosque","ward_code":"LASKSE02","poi_type":"Mosque","global_id":"8bf7570e-7626-40a3-a3c7-f133068abbaf"}},{"type":"Feature","id":"u_fc_poi_mosque.12174","geometry":{"type":"Point","coordinates":[3.77309,6.62762]},"geometry_name":"geom","properties":{"state_code":"LA","source":"OSGOF","name":"Orugbo Central Mosque","ward_code":"LASEPE17","poi_type":"Mosque","global_id":"8bfe31cb-1189-4d22-978e-697859e7ccca"}},{"type":"Feature","id":"u_fc_poi_mosque.12215","geometry":{"type":"Point","coordinates":[3.33068,6.61953]},"geometry_name":"geom","properties":{"state_code":"LA","source":"OSGOF","name":"Ike Oluwa Mosque Ajegunle","ward_code":"LASAGG13","poi_type":"Mosque","global_id":"8c7fd6b5-c5ae-4da7-abbe-9a26eed575a4"}},{"type":"Feature","id":"u_fc_poi_mosque.12335","geometry":{"type":"Point","coordinates":[3.32469,6.62454]},"geometry_name":"geom","properties":{"state_code":"LA","source":"OSGOF","name":"Markaz Sheih Mosque","ward_code":"LASAGG13","poi_type":"Mosque","global_id":"8dd0bf33-f3a0-4b70-a3df-ad603269a33e"}},{"type":"Feature","id":"u_fc_poi_mosque.12366","geometry":{"type":"Point","coordinates":[3.31544,6.65438]},