{"type":"FeatureCollection","features":[{"type":"Feature","id":"u_fc_poi_school.7","geometry":{"type":"Point","coordinates":[3.26119,6.6102]},"geometry_name":"geom","properties":{"state_code":"LA","source":"GRID","name":"Prime Focus School","ward_code":"LASAMO26","category":"Primary","subtype":"Standard","management":"Private","education":"Formal","poi_type":"School","no_of_teachers":null,"no_of_students":null,"global_id":"0005aad7-5275-4ba9-8384-c135c3055275"}},{"type":"Feature","id":"u_fc_poi_school.9","geometry":{"type":"Point","coordinates":[3.26229,6.50702]},"geometry_name":"geom","properties":{"state_code":"LA","source":"GRID","name":"Royal Heritage","ward_code":"LASAMO27","category":"Primary","subtype":"Standard","management":"Private","education":"Formal","poi_type":"School","no_of_teachers":null,"no_of_students":null,"global_id":"0006ac19-4a0c-4746-8fb1-e074eaef5d03"}},{"type":"Feature","id":"u_fc_poi_school.20","geometry":{"type":"Point","coordinates":[3.7497,6.4795]},"geometry_name":"geom","properties":{"state_code":"LA","source":"GRID","name":"Little Cuddly Bears","ward_code":"LASIUI05","category":"Pre Primary","subtype":"Nursery","management":"Private","education":"Formal","poi_type":"School","no_of_teachers":null,"no_of_students":null,"global_id":"000c5021-6858-4407-8a7d-d26e7b0c92af"}},{"type":"Feature","id":"u_fc_poi_school.61","geometry":{"type":"Point","coordinates":[3.3404288,6.5717001]},"geometry_name":"geom","properties":{"state_code":"LA","source":"GRID","name":"Yintab Private School","ward_code":"LASOIO08","category":"Primary","subtype":"Standard","management":"Private","education":"Formal","poi_type":"School","no_of_teachers":null,"no_of_students":null,"global_id":"00296f8b-6f87-4c2a-a682-0a37874e1e20"}},{"type":"Feature","id":"u_fc_poi_school.80","geometry":{"type":"Point","coordinates":[3.2623058,6.6688077]},"geometry_name":"geom","properties":{"state_code":"LA","source":"GRID","name":"Mafazat Primary School","ward_code":"LASAMO11","category":"Primary","subtype":"Primary","management":"Private","education":"Formal","poi_type":"School","no_of_teachers":null,"no_of_students":null,"global_id":"00374909-3a69-464b-90f9-694269c9b4e1"}},{"type":"Feature","id":"u_fc_poi_school.95","geometry":{"type":"Point","coordinates":[3.25784,6.59849]},"geometry_name":"geom","properties":{"state_code":"LA","source":"GRID","name":"Testament School","ward_code":"LASAMO16","category":"Primary","subtype":"Standard","management":"Private","education":"Formal","poi_type":"School","no_of_teachers":null,"no_of_students":null,"global_id":"00463a24-0587-487a-82f4-ef5d07cd3a24"}},{"type":"Feature","id":"u_fc_poi_school.142","geometry":{"type":"Point","coordinates":[3.30904,6.65697]},"geometry_name":"geom","properties":{"state_code":"LA","source":"GRID","name":"Tofek College Tofek Street","ward_code":"LASIOE01","category":"Secondary","subtype":"Standard","management":"Private","education":"Formal","poi_type":"School","no_of_teachers":null,"no_of_students":null,"global_id":"00643c41-e610-4d7a-a50d-a3bd519b6d59"}},{"type":"Feature","id":"u_fc_poi_school.200","geometry":{"type":"Point","coordinates":[3.3315886,6.6417111]},"geometry_name":"geom","properties":{"state_code":"LA","source":"GRID","name":"Wealthy Place School","ward_code":"LASIOE05","category":"Pre Primary","subtype":"Nursery","management":"Private","education":"Formal","poi_type":"School","no_of_teachers":null,"no_of_students":null,"global_id":"0080f7d9-d625-421f-9152-b0f7c01bdb23"}},{"type":"Feature","id":"u_fc_poi_school.212","geometry":{"type":"Point","coordinates":[3.399804,6.452756]},"geometry_name":"geom","properties":{"state_code":"LA","source":"NMIS","name":"Abmos Private School","ward_code":"LASLID06","category":"Secondary","subtype":"Standard","management":"Private","education":"Integrated","poi_type":"School","no_of_teachers":null,"no_of_students":null,"global_id":"008762c4-eaae-48a3-8d24-bdb9353bc76a"}},{"type":"Feature","id":"u_fc_poi_school.218","geometry":{"type":"Point","coordinates":[3.33964,6.50257]},"geometry_name":"geom","properties":{"state_code":"LA","source":"GRID","name":"St Batholomew Secondary School","ward_code":"LASSUE15","category":"Secondary","subtype":"Standard","management":"Private","education":"Formal","poi_type":"School","no_of_teachers":null,"no_of_students":null,"global_id":"00898a5f-6f45-4bc0-8c90-e6632559a219"}},{"type":"Feature","id":"u_fc_poi_school.245","geometry":{"type":"Point","coordinates":[3.59487,6.50108]},"geometry_name":"geom","properties":{"state_code":"LA","source":"GRID","name":"Manita School","ward_code":"LASEOA06","category":"Pre Primary","subtype":"Nursery","management":"Private","education":"Formal","poi_type":"School","no_of_teachers":null,"no_of_students":null,"global_id":"009d4fd9-ad95-4204-9495-c40e151894a3"}},{"type":"Feature","id":"u_fc_poi_school.248","geometry":{"type":"Point","coordinates":[3.4534067,6.6729167]},"geometry_name":"geom","properties":{"state_code":"LA","source":"eHA Polio","name":"Yorfem Private School","ward_code":"LASIKU16","category":"Primary","subtype":"Standard","management":"Private","education":"Formal","poi_type":"School","no_of_teachers":null,"no_of_students":null,"global_id":"009fa974-42a9-4471-9aec-5fe6955800b1"}},{"type":"Feature","id":"u_fc_poi_school.271","geometry":{"type":"Point","coordinates":[3.59254,6.66904]},"geometry_name":"geom","properties":{"state_code":"LA","source":"GRID","name":"Blessed Impact School","ward_code":"LASIKU18","category":"Primary","subtype":"Standard","management":"Private","education":"Formal","poi_type":"School","no_of_teachers":null,"no_of_students":null,"global_id":"00acc50b-98df-40db-9fb1-d76e8813b641"}},{"type":"Feature","id":"u_fc_poi_school.285","geometry":{"type":"Point","coordinates":[3.3054083,6.6200896]},"geometry_name":"geom","properties":{"state_code":"LA","source":"GRID","name":"Albaraka School","ward_code":"LASAGG09","category":"Primary","subtype":"Standard","management":"Private","education":"Formal","poi_type":"School","no_of_teachers":13,"no_of_students":80,"global_id":"00b577d1-03d6-4e9b-90b9-0d028bc39397"}},{"type":"Feature","id":"u_fc_poi_school.303","geometry":{"type":"Point","coordinates":[3.48235,6.56251]},"geometry_name":"geom","properties":{"state_code":"LA","source":"GRID","name":"Bimron College","ward_code":"LASIKU13","category":"Secondary","subtype":"Standard","management":"Private","education":"Formal","poi_type":"School","no_of_teachers":null,"no_of_students":null,"global_id":"00bea8f4-ba2c-4e48-9bec-5fedff419b2f"}},{"type":"Feature","id":"u_fc_poi_school.304","geometry":{"type":"Point","coordinates":[3.2390373,6.5158305]},"geometry_name":"geom","properties":{"state_code":"LA","source":"GRID","name":"Finger Of God School","ward_code":"LASAMO24","category":"Primary","subtype":"Standard","management":"Private","education":"Formal","poi_type":"School","no_of_teachers":null,"no_of_students":null,"global_id":"00bfedea-88bb-498c-8905-a80367aaab5e"}},{"type":"Feature","id":"u_fc_poi_school.320","geometry":{"type":"Point","coordinates":[3.52118,6.63471]},"geometry_name":"geom","properties":{"state_code":"LA","source":"GRID","name":"Purple Shores Montessori School","ward_code":"LASIKU20","category":"Pre Primary","subtype":"Nursery","management":"Private","education":"Formal","poi_type":"School","no_of_teachers":10,"no_of_students":92,"global_id":"00c871d9-0f05-4834-b644-d8830df03a39"}},{"type":"Feature","id":"u_fc_poi_school.330","geometry":{"type":"Point","coordinates":[3.384075,6.499492]},"geometry_name":"geom","properties":{"state_code":"LA","source":"NMIS","name":"Bestway Nursery and Primary School","ward_code":"LASLMD05","category":"Primary","subtype":"Pre Primary","management":"Private","education":"Formal","poi_type":"School","no_of_teachers":null,"no_of_students":null,"global_id":"00cfa454-d122-491f-9007-701cdc0ac3a8"}},{"type":"Feature","id":"u_fc_poi_school.345","geometry":{"type":"Point","coordinates":[3.50894,6.55235]},"geometry_name":"geom","properties":{"state_code":"LA","source":"GRID","name":"Stanley School","ward_code":"LASIKU01","category":"Secondary","subtype":"Standard","management":"Private","education":"Formal","poi_type":"School","no_of_teachers":null,"no_of_students":null,"global_id":"00dd9d7a-5388-4ab3-aeec-2ddbebad055b"}},{"type":"Feature","id":"u_fc_poi_school.353","geometry":{"type":"Point","coordinates":[3.26826,6.55906]},"geometry_name":"geom","properties":{"state_code":"LA","source":"GRID","name":"Deore Comprehensive College","ward_code":"LASAMO28","category":"Secondary","subtype":"Standard","management":"Private","education":"Formal","poi_type":"School","no_of_teachers":15,"no_of_students":60,"global_id":"00e1e345-2a7b-4283-b2ff-7d73437cd5e1"}},{"type":"Feature","id":"u_fc_poi_school.360","geometry":{"type":"Point","coordinates":[3.48419,6.55414]},"geometry_name":"geom","properties":{"state_code":"LA","source":"GRID","name":"Divine Favour Academy","ward_code":"LASIKU13","category":"Secondary","subtype":"Standard","management":"Private","education":"Formal","poi_type":"School","no_of_teachers":9,"no_of_students":70,"global_id":"00e44822-08d6-4786-98b0-146396d363f0"}},{"type":"Feature","id":"u_fc_poi_school.390","geometry":{"type":"Point","coordinates":[3.3916461,6.6076191]},"geometry_name":"geom","properties":{"state_code":"LA","source":"GRID","name":"Micfod School","ward_code":"LASKSE19","category":"Secondary","subtype":"Standard","management":"Private","education":"Formal","poi_type":"School","no_of_teachers":null,"no_of_students":null,"global_id":"00f6bb9c-e14b-423d-8aa3-f4565d60e869"}},{"type":"Feature","id":"u_fc_poi_school.391","geometry":{"type":"Point","coordinates":[3.29237,6.67555]},"geometry_name":"geom","properties":{"state_code":"LA","source":"GRID","name":"Rite Heritage School","ward_code":"LASIOE07","category":"Primary","subtype":"Standard","management":"Private","education":"Formal","poi_type":"School","no_of_teachers":12,"no_of_students":null,"global_id":"00f72eea-2d77-411c-bc0f-2e61bd34eed0"}},{"type":"Feature","id":"u_fc_poi_school.397","geometry":{"type":"Point","coordinates":[3.387908,6.60129]},"geometry_name":"geom","properties":{"state_code":"LA","source":"NMIS","name":"Lexis College","ward_code":"LASKSE19","category":"Secondary","subtype":"Standard","management":"Private","education":"Formal","poi_type":"School","no_of_teachers":null,"no_of_students":null,"global_id":"00fa622e-8991-4799-8de1-138c9422f16c"}},{"type":"Feature","id":"u_fc_poi_school.405","geometry":{"type":"Point","coordinates":[3.25989,6.60384]},"geometry_name":"geom","properties":{"state_code":"LA","source":"GRID","name":"Sure Foundation School","ward_code":"LASAMO13","category":"Primary","subtype":"Standard","management":"Private","education":"Formal","poi_type":"School","no_of_teachers":null,"no_of_students":null,"global_id":"00fda8cf-38d1-4114-a0ce-67cfc70bf506"}},{"type":"Feature","id":"u_fc_poi_school.406","geometry":{"type":"Point","coordinates":[3.56699,6.59222]},"geometry_name":"geom","properties":{"state_code":"LA","source":"GRID","name":"International Academics Nursery And Primary School","ward_code":"LASIKU11","category":"Primary","subtype":"Standard","management":"Private","education":"Formal","poi_type":"School","no_of_teachers":8,"no_of_students":80,"global_id":"01003bb1-eca3-4ce7-9597-acf97f5bb994"}},{"type":"Feature","id":"u_fc_poi_school.408","geometry":{"type":"Point","coordinates":[3.31269,6.6192]},"geometry_name":"geom","properties":{"state_code":"LA","source":"GRID","name":"Shield Land School","ward_code":"LASAGG10","category":"Primary","subtype":"Standard","management":"Private","education":"Formal","poi_type":"School","no_of_teachers":10,"no_of_students":60,"global_id":"01012e0e-0f75-40d1-86bf-0272b624ab65"}},{"type":"Feature","id":"u_fc_poi_school.417","geometry":{"type":"Point","coordinates":[3.21477,6.45528]},"geometry_name":"geom","properties":{"state_code":"LA","source":"GRID","name":"Excellence Foundation Academy Nursery And Primary School","ward_code":"LASOJO08","category":"Primary","subtype":"Standard","management":"Private","education":"Formal","poi_type":"School","no_of_teachers":5,"no_of_students":50,"global_id":"0106c306-4b7b-4955-9282-9d7eca6c6de2"}},{"type":"Feature","id":"u_fc_poi_school.435","geometry":{"type":"Point","coordinates":[3.274453,6.470555]},"geometry_name":"geom","properties":{"state_code":"LA","source":"NMIS","name":"S Tee Schools Formerly Subuola","ward_code":"LASAON10","category":"Primary","subtype":"Standard","management":"Private","education":"Formal","poi_type":"School","no_of_teachers":null,"no_of_students":null,"global_id":"011406c4-92d0-4a32-9aa7-8bfe1518cd82"}},{"type":"Feature","id":"u_fc_poi_school.438","geometry":{"type":"Point","coordinates":[2.77432,6.39292]},"geometry_name":"geom","properties":{"state_code":"LA","source":"GRID","name":"Olafenwa Adeola Nursery And Primary School","ward_code":"LASBDY10","category":"Primary","subtype":"Standard","management":"Private","education":"Formal","poi_type":"School","no_of_teachers":null,"no_of_students":null,"global_id":"011519ed-4671-4fd5-94a1-15e5d16a8ae9"}},{"type":"Feature","id":"u_fc_poi_school.441","geometry":{"type":"Point","coordinates":[3.36048,6.51755]},"geometry_name":"geom","properties":{"state_code":"LA","source":"GRID","name":"Ogunlade Primary And Secondary School","ward_code":"LASMUN05","category":"Mixed","subtype":"Standard","management":"Private","education":"Formal","poi_type":"School","no_of_teachers":null,"no_of_students":null,"global_id":"011620c3-8528-42d8-9bd5-dfc3809a31d9"}},{"type":"Feature","id":"u_fc_poi_school.450","geometry":{"type":"Point","coordinates":[3.25949,6.54818]},"geometry_name":"geom","properties":{"state_code":"LA","source":"GRID","name":"Gods Will Nursery And Primary School","ward_code":"LASAMO01","category":"Primary","subtype":"Standard","management":"Private","education":"Formal","poi_type":"School","no_of_teachers":null,"no_of_students":null,"global_id":"011a3352-cb21-40e4-be4e-f9efab552157"}},{"type":"Feature","id":"u_fc_poi_school.465","geometry":{"type":"Point","coordinates":[3.2563,6.56236]},"geometry_name":"geom","properties":{"state_code":"LA","source":"GRID","name":"White Bred School","ward_code":"LASAMO25","category":"Primary","subtype":"Standard","management":"Private","education":"Formal","poi_type":"School","no_of_teachers":null,"no_of_students":null,"global_id":"0121d2be-0042-4fa8-aebe-53d2a0ba052a"}},{"type":"Feature","id":"u_fc_poi_school.483","geometry":{"type":"Point","coordinates":[3.5505788,6.5750698]},"geometry_name":"geom","properties":{"state_code":"LA","source":"GRID","name":"Brilliant Minds Secondary School","ward_code":"LASIKU01","category":"Secondary","subtype":"Standard","management":"Private","education":"Formal","poi_type":"School","no_of_teachers":7,"no_of_students":46,"global_id":"012cb579-187b-4ac5-a1db-26769e25e7a0"}},{"type":"Feature","id":"u_fc_poi_school.496","geometry":{"type":"Point","coordinates":[3.1393518,6.4958158]},"geometry_name":"geom","properties":{"state_code":"LA","source":"GRID","name":"Dominionfield College","ward_code":"LASOJO06","category":"Primary","subtype":"Standard","management":"Private","education":"Formal","poi_type":"School","no_of_teachers":null,"no_of_students":null,"global_id":"0136d40d-3cd0-495b-84ff-451fee27ba47"}},{"type":"Feature","id":"u_fc_poi_school.537","geometry":{"type":"Point","coordinates":[3.04764,6.47258]},"geometry_name":"geom","properties":{"state_code":"LA","source":"GRID","name":"Alexfemi Gods Gift Group Of School","ward_code":"LASBDY08","category":"Primary","subtype":"Standard","management":"Private","education":"Formal","poi_type":"School","no_of_teachers":null,"no_of_students":null,"global_id":"014e100b-1f5b-4132-a3de-70906680ccb4"}},{"type":"Feature","id":"u_fc_poi_school.589","geometry":{"type":"Point","coordinates":[3.31658,6.49465]},"geometry_name":"geom","properties":{"state_code":"LA","source":"GRID","name":"Ama Land Children School","ward_code":"LASOIO18","category":"Primary","subtype":"Standard","management":"Private","education":"Formal","poi_type":"School","no_of_teachers":null,"no_of_students":null,"global_id":"01719b7a-f4d3-4dc5-a89b-e690c35ff8d2"}},{"type":"Feature","id":"u_fc_poi_school.591","geometry":{"type":"Point","coordinates":[3.20572,6.57683]},"geometry_name":"geom","properties":{"state_code":"LA","source":"GRID","name":"Leadway Rock Success Academy","ward_code":"LASAMO15","category":"Primary","subtype":"Standard","management":"Private","education":"Formal","poi_type":"School","no_of_teachers":null,"no_of_students":null,"global_id":"01731868-a830-4559-8ac0-da353e90ae86"}},{"type":"Feature","id":"u_fc_poi_school.619","geometry":{"type":"Point","coordinates":[3.31454,6.65502]},"geometry_name":"geom","properties":{"state_code":"LA","source":"GRID","name":"Noble Vine School","ward_code":"LASIOE02","category":"Primary","subtype":"Standard","management":"Private","education":"Formal","poi_type":"School","no_of_teachers":null,"no_of_students":null,"global_id":"01815cb6-4d13-477f-97ee-f41118734869"}},{"type":"Feature","id":"u_fc_poi_school.626","geometry":{"type":"Point","coordinates":[3.481009,6.6312303]},"geometry_name":"geom","properties":{"state_code":"LA","source":"GRID","name":"His Grace Dynamic Nursery And Primary School","ward_code":"LASIKU28","category":"Primary","subtype":"Standard","management":"Private","education":"Formal","poi_type":"School","no_of_teachers":null,"no_of_students":null,"global_id":"0186be0f-84eb-425e-aa45-0f700b3abe74"}},{"type":"Feature","id":"u_fc_poi_school.651","geometry":{"type":"Point","coordinates":[3.30538,6.57383]},"geometry_name":"geom","properties":{"state_code":"LA","source":"GRID","name":"Beeland Schools","ward_code":"LASAMO30","category":"Primary","subtype":"Standard","management":"Private","education":"Formal","poi_type":"School","no_of_teachers":null,"no_of_students":null,"global_id":"019ab70b-3609-4f63-86f2-188b4c7039fc"}},{"type":"Feature","id":"u_fc_poi_school.705","geometry":{"type":"Point","coordinates":[3.354193,6.534678]},"geometry_name":"geom","properties":{"state_code":"LA","source":"NMIS","name":"Briggsgate School","ward_code":"LASMUN15","category":"Primary","subtype":"Standard","management":"Private","education":"Formal","poi_type":"School","no_of_teachers":null,"no_of_students":null,"global_id":"01c629fd-8d50-4c67-ac21-b0954715616d"}},{"type":"Feature","id":"u_fc_poi_school.736","geometry":{"type":"Point","coordinates":[3.27311,6.62396]},"geometry_name":"geom","properties":{"state_code":"LA","source":"GRID","name":"Deolag College","ward_code":"LASAMO04","category":"Primary","subtype":"Standard","management":"Private","education":"Formal","poi_type":"School","no_of_teachers":null,"no_of_students":null,"global_id":"01d872d9-bbed-4d90-a89f-6fbda878ccd0"}},{"type":"Feature","id":"u_fc_poi_school.752","geometry":{"type":"Point","coordinates":[3.348212,6.474058]},"geometry_name":"geom","properties":{"state_code":"LA","source":"NMIS","name":"St Kres","ward_code":"LASAPA03","category":"Primary","subtype":"Standard","management":"Private","education":"Formal","poi_type":"School","no_of_teachers":null,"no_of_students":null,"global_id":"01e28cc7-e33d-49cb-b83e-03b2350898c7"}},{"type":"Feature","id":"u_fc_poi_school.768","geometry":{"type":"Point","coordinates":[3.2895806,6.56138]},"geometry_name":"geom","properties":{"state_code":"LA","source":"GRID","name":"Romok Nursery And Primary School","ward_code":"LASOIO10","category":"Primary","subtype":"Standard","management":"Private","education":"Formal","poi_type":"School","no_of_teachers":17,"no_of_students":null,"global_id":"01eb4d5f-1269-4bc8-9f1e-06af5cc8fcd0"}},{"type":"Feature","id":"u_fc_poi_school.794","geometry":{"type":"Point","coordinates":[3.1286351,6.4577949]},"geometry_name":"geom","properties":{"state_code":"LA","source":"GRID","name":"Toseg Leaders Private School","ward_code":"LASOJO03","category":"Primary","subtype":"Standard","management":"Private","education":"Formal","poi_type":"School","no_of_teachers":null,"no_of_students":null,"global_id":"01fa7e13-eef6-49d8-8077-df6dcb2b0ddc"}},{"type":"Feature","id":"u_fc_poi_school.823","geometry":{"type":"Point","coordinates":[3.1755177,6.4762577]},"geometry_name":"geom","properties":{"state_code":"LA","source":"GRID","name":"Precious Primary School","ward_code":"LASOJO01","category":"Primary","subtype":"Standard","management":"Private","education":"Formal","poi_type":"School","no_of_teachers":4,"no_of_students":33,"global_id":"020df3ac-637a-43ec-b508-7114c8d8fb23"}},{"type":"Feature","id":"u_fc_poi_school.829","geometry":{"type":"Point","coordinates":[3.2966,6.59001]},"geometry_name":"geom","properties":{"state_code":"LA","source":"GRID","name":"Christ Folus School","ward_code":"LASAMO30","category":"Primary","subtype":"Standard","management":"Private","education":"Formal","poi_type":"School","no_of_teachers":null,"no_of_students":null,"global_id":"0212f5a7-54b5-49df-ad91-2167a148fd9e"}},{"type":"Feature","id":"u_fc_poi_school.835","geometry":{"type":"Point","coordinates":[3.51539,6.6176]},"geometry_name":"geom","properties":{"state_code":"LA","source":"GRID","name":"Adefeso Memorial School","ward_code":"LASIKU29","category":"Primary","subtype":"Standard","management":"Private","education":"Formal","poi_type":"School","no_of_teachers":null,"no_of_students":null,"global_id":"0219cbb1-20d5-4dfb-b1b6-11d208418457"}},{"type":"Feature","id":"u_fc_poi_school.888","geometry":{"type":"Point","coordinates":[3.27938,6.51025]},"geometry_name":"geom","properties":{"state_code":"LA","source":"GRID","name":"Rolyfield Group Of School","ward_code":"LASAMO27","category":"Primary","subtype":"Standard","management":"Private","education":"Formal","poi_type":"School","no_of_teachers":null,"no_of_students":null,"global_id":"023b9d0e-b3e5-4ed0-9106-56fa0ae2e948"}},{"type":"Feature","id":"u_fc_poi_school.916","geometry":{"type":"Point","coordinates":[3.2724381,6.4567192]},"geometry_name":"geom","properties":{"state_code":"LA","source":"GRID","name":"Mar Yola Nursery And Primary School","ward_code":"LASAON03","category":"Primary","subtype":"Standard","management":"Private","education":"Formal","poi_type":"School","no_of_teachers":null,"no_of_students":null,"global_id":"0249cf19-fd22-4723-9d73-87e5f884d441"}},{"type":"Feature","id":"u_fc_poi_school.947","geometry":{"type":"Point","coordinates":[3.2977417,6.6822983]},"geometry_name":"geom","properties":{"state_code":"LA","source":"eHA Polio","name":"Fruit Tee School","ward_code":"LASIOE07","category":"Primary","subtype":"Standard","management":"Private","education":"Formal","poi_type":"School","no_of_teachers":null,"no_of_students":null,"global_id":"0263187d-ce66-4f92-9637-c25f015db837"}},{"type":"Feature","id":"u_fc_poi_school.950","geometry":{"type":"Point","coordinates":[3.30212,6.65449]},"geometry_name":"geom","properties":{"state_code":"LA","source":"GRID","name":"Grajos Institute Of Mass Communication","ward_code":"LASIOE01","category":"Tertiary","subtype":"Standard","management":"Private","education":"Formal","poi_type":"School","no_of_teachers":null,"no_of_students":null,"global_id":"02653b8e-893c-4b75-8199-24b1a9933add"}},{"type":"Feature","id":"u_fc_poi_school.954","geometry":{"type":"Point","coordinates":[3.24845,6.52339]},"geometry_name":"geom","properties":{"state_code":"LA","source":"GRID","name":"Bobby Bens High School","ward_code":"LASAMO01","category":"Secondary","subtype":"Standard","management":"Private","education":"Formal","poi_type":"School","no_of_teachers":null,"no_of_students":null,"global_id":"02679694-a888-4774-ac67-c3424991dce0"}},{"type":"Feature","id":"u_fc_poi_school.981","geometry":{"type":"Point","coordinates":[3.31826,6.63853]},"geometry_name":"geom","properties":{"state_code":"LA","source":"GRID","name":"Fountain Of Wisdom College","ward_code":"LASAGG12","category":"Primary","subtype":"Standard","management":"Private","education":"Formal","poi_type":"School","no_of_teachers":15,"no_of_students":83,"global_id":"027c4f19-bb02-47d8-80d2-de48a2991d7b"}},{"type":"Feature","id":"u_fc_poi_school.984","geometry":{"type":"Point","coordinates":[3.50724,6.60192]},"geometry_name":"geom","properties":{"state_code":"LA","source":"GRID","name":"Upward Waves International","ward_code":"LASIKU02","category":"Primary","subtype":"Standard","management":"Private","education":"Formal","poi_type":"School","no_of_teachers":null,"no_of_students":null,"global_id":"027d2d25-c449-41d9-865f-56a9683c65c2"}},{"type":"Feature","id":"u_fc_poi_school.991","geometry":{"type":"Point","coordinates":[3.2618234,6.6705768]},"geometry_name":"geom","properties":{"state_code":"LA","source":"GRID","name":"Mafazat Comprehensive High School","ward_code":"LASAMO11","category":"Secondary","subtype":"Standard","management":"Private","education":"Formal","poi_type":"School","no_of_teachers":null,"no_of_students":null,"global_id":"0281c739-53e0-44d0-a478-eb87d0edc82b"}},{"type":"Feature","id":"u_fc_poi_school.1009","geometry":{"type":"Point","coordinates":[3.22106,6.55135]},"geometry_name":"geom","properties":{"state_code":"LA","source":"GRID","name":"Philwel Favour School","ward_code":"LASAMO17","category":"Primary","subtype":"Standard","management":"Private","education":"Formal","poi_type":"School","no_of_teachers":16,"no_of_students":138,"global_id":"0290c3f8-25d7-44cf-a183-f0e2fc68dd25"}},{"type":"Feature","id":"u_fc_poi_school.1021","geometry":{"type":"Point","coordinates":[3.389931,6.462069]},"geometry_name":"geom","properties":{"state_code":"LA","source":"NMIS","name":"ECWA Private School","ward_code":"LASLID10","category":"Primary","subtype":"Standard","management":"Private","education":"Formal","poi_type":"School","no_of_teachers":null,"no_of_students":null,"global_id":"029a0b34-fc40-45e8-b41e-cb3d978708f8"}},{"type":"Feature","id":"u_fc_poi_school.1028","geometry":{"type":"Point","coordinates":[3.26289,6.43701]},"geometry_name":"geom","properties":{"state_code":"LA","source":"GRID","name":"Edylight Primary School","ward_code":"LASAON08","category":"Primary","subtype":"Standard","management":"Private","education":"Formal","poi_type":"School","no_of_teachers":null,"no_of_students":null,"global_id":"029ed7e4-41e6-4515-bcc8-b7eae8179656"}},{"type":"Feature","id":"u_fc_poi_school.1032","geometry":{"type":"Point","coordinates":[2.9578559,6.4329079]},"geometry_name":"geom","properties":{"state_code":"LA","source":"GRID","name":"Eagle Stars International School","ward_code":"LASBDY04","category":"Primary","subtype":"Standard","management":"Private","education":"Formal","poi_type":"School","no_of_teachers":15,"no_of_students":130,"global_id":"02a15268-4a6a-4c80-8c6e-0febbfd77b83"}},{"type":"Feature","id":"u_fc_poi_school.1033","geometry":{"type":"Point","coordinates":[3.06331,6.49006]},"geometry_name":"geom","properties":{"state_code":"LA","source":"GRID","name":"Joy Forever Nursery And Primary School","ward_code":"LASBDY11","category":"Primary","subtype":"Standard","management":"Private","education":"Formal","poi_type":"School","no_of_teachers":10,"no_of_students":200,"global_id":"02a24559-1f7d-418a-a172-52fb29c2185c"}},{"type":"Feature","id":"u_fc_poi_school.1048","geometry":{"type":"Point","coordinates":[3.354919,6.470455]},"geometry_name":"geom","properties":{"state_code":"LA","source":"NMIS","name":"Solid Rock Foundation Nursery and Primary School","ward_code":"LASAPA11","category":"Primary","subtype":"Standard","management":"Private","education":"Formal","poi_type":"School","no_of_teachers":null,"no_of_students":null,"global_id":"02aa0326-7c5d-4c6b-9461-b46580c4eb21"}},{"type":"Feature","id":"u_fc_poi_school.1075","geometry":{"type":"Point","coordinates":[3.375381,6.4867335]},"geometry_name":"geom","properties":{"state_code":"LA","source":"GRID","name":"Civil And Noble School","ward_code":"LASLMD13","category":"Primary","subtype":"Standard","management":"Private","education":"Formal","poi_type":"School","no_of_teachers":null,"no_of_students":null,"global_id":"02b9d77e-5420-4f69-bf39-1141f5d4577e"}},{"type":"Feature","id":"u_fc_poi_school.1082","geometry":{"type":"Point","coordinates":[4.3324596,6.403881]},"geometry_name":"geom","properties":{"state_code":"LA","source":"NMIS","name":"Excellent International School","ward_code":"LASEPE16","category":"Primary","subtype":"Standard","management":"Private","education":"Formal","poi_type":"School","no_of_teachers":null,"no_of_students":null,"global_id":"02bc7aa7-ef96-4292-8d18-4c4c3803a20f"}},{"type":"Feature","id":"u_fc_poi_school.1085","geometry":{"type":"Point","coordinates":[3.455042,6.6577569]},"geometry_name":"geom","properties":{"state_code":"LA","source":"GRID","name":"Deprif International School","ward_code":"LASIKU16","category":"Primary","subtype":"Standard","management":"Private","education":"Formal","poi_type":"School","no_of_teachers":18,"no_of_students":null,"global_id":"02bdd103-6bf1-40ec-845d-e040e6c05363"}},{"type":"Feature","id":"u_fc_poi_school.1088","geometry":{"type":"Point","coordinates":[3.61127,6.6141]},"geometry_name":"geom","properties":{"state_code":"LA","source":"GRID","name":"Jeorock International School","ward_code":"LASIKU04","category":"Primary","subtype":"Standard","management":"Private","education":"Formal","poi_type":"School","no_of_teachers":null,"no_of_students":null,"global_id":"02bf33a0-4b31-4060-8acc-7fd0a16429bf"}},{"type":"Feature","id":"u_fc_poi_school.1100","geometry":{"type":"Point","coordinates":[3.60565,6.67778]},"geometry_name":"geom","properties":{"state_code":"LA","source":"GRID","name":"Joseph Glory International School","ward_code":"LASIKU18","category":"Primary","subtype":"Standard","management":"Private","education":"Formal","poi_type":"School","no_of_teachers":null,"no_of_students":null,"global_id":"02c4c8d9-ed58-484e-9f02-654a051556ea"}},{"type":"Feature","id":"u_fc_poi_school.1104","geometry":{"type":"Point","coordinates":[3.313893,6.622614]},"geometry_name":"geom","properties":{"state_code":"LA","source":"NMIS","name":"Mabecon Private Schools","ward_code":"LASAGG02","category":"Secondary","subtype":"Standard","management":"Private","education":"Formal","poi_type":"School","no_of_teachers":null,"no_of_students":null,"global_id":"02c6d401-7736-403d-a1da-cd2c1148f607"}},{"type":"Feature","id":"u_fc_poi_school.1123","geometry":{"type":"Point","coordinates":[3.26127,6.55692]},"geometry_name":"geom","properties":{"state_code":"LA","source":"GRID","name":"Genius Grace Children School","ward_code":"LASAMO25","category":"Primary","subtype":"Standard","management":"Private","education":"Formal","poi_type":"School","no_of_teachers":null,"no_of_students":null,"global_id":"02cf3a62-fbb7-48a0-b4c2-92610857093f"}},{"type":"Feature","id":"u_fc_poi_school.1126","geometry":{"type":"Point","coordinates":[3.50741,6.5906]},"geometry_name":"geom","properties":{"state_code":"LA","source":"GRID","name":"At Tanzeel School","ward_code":"LASIKU01","category":"Primary","subtype":"Standard","management":"Private","education":"Formal","poi_type":"School","no_of_teachers":null,"no_of_students":null,"global_id":"02d144c4-a08e-4967-ac3e-a64f75e00d66"}},{"type":"Feature","id":"u_fc_poi_school.1127","geometry":{"type":"Point","coordinates":[3.3592108,6.4245542]},"geometry_name":"geom","properties":{"state_code":"LA","source":"GRID","name":"Green Pasture Private School","ward_code":"LASAPA02","category":"Primary","subtype":"Standard","management":"Private","education":"Formal","poi_type":"School","no_of_teachers":5,"no_of_students":54,"global_id":"02d14719-3b42-498c-9f9b-555703a80130"}},{"type":"Feature","id":"u_fc_poi_school.1141","geometry":{"type":"Point","coordinates":[3.29936,6.46451]},"geometry_name":"geom","properties":{"state_code":"LA","source":"GRID","name":"Ruby Land Academy","ward_code":"LASAON07","category":"Primary","subtype":"Standard","management":"Private","education":"Formal","poi_type":"School","no_of_teachers":null,"no_of_students":null,"global_id":"02d93a19-c886-46f7-9cf4-bb4564796377"}},{"type":"Feature","id":"u_fc_poi_school.1177","geometry":{"type":"Point","coordinates":[3.22781,6.59218]},"geometry_name":"geom","properties":{"state_code":"LA","source":"GRID","name":"Grenville School","ward_code":"LASAMO15","category":"Primary","subtype":"Standard","management":"Private","education":"Formal","poi_type":"School","no_of_teachers":null,"no_of_students":null,"global_id":"02ec2605-2f0a-43e3-960a-b09b8a29eee3"}},{"type":"Feature","id":"u_fc_poi_school.1178","geometry":{"type":"Point","coordinates":[3.69721,6.46797]},"geometry_name":"geom","properties":{"state_code":"LA","source":"GRID","name":"Whistles Children Place School","ward_code":"LASIUI04","category":"Pre Primary","subtype":"Nursery","management":"Private","education":"Formal","poi_type":"School","no_of_teachers":15,"no_of_students":52,"global_id":"02ec5b58-3cad-4e61-9c08-d671bd25d4d2"}},{"type":"Feature","id":"u_fc_poi_school.1190","geometry":{"type":"Point","coordinates":[3.53026,6.57777]},"geometry_name":"geom","properties":{"state_code":"LA","source":"GRID","name":"Best Profile Nursery And Primary School","ward_code":"LASIKU01","category":"Primary","subtype":"Standard","management":"Private","education":"Formal","poi_type":"School","no_of_teachers":8,"no_of_students":92,"global_id":"02f22a78-9f0f-48e4-9f44-78a3002f2143"}},{"type":"Feature","id":"u_fc_poi_school.1192","geometry":{"type":"Point","coordinates":[3.51628,6.65792]},"geometry_name":"geom","properties":{"state_code":"LA","source":"GRID","name":"De Clever Mabson School","ward_code":"LASIKU23","category":"Primary","subtype":"Standard","management":"Private","education":"Formal","poi_type":"School","no_of_teachers":null,"no_of_students":null,"global_id":"02f38978-7e33-459c-b9d0-ef4334f18622"}},{"type":"Feature","id":"u_fc_poi_school.1220","geometry":{"type":"Point","coordinates":[3.21943,6.53045]},"geometry_name":"geom","properties":{"state_code":"LA","source":"GRID","name":"Pleasant Life School","ward_code":"LASAMO08","category":"Primary","subtype":"Standard","management":"Private","education":"Formal","poi_type":"School","no_of_teachers":15,"no_of_students":152,"global_id":"03050b91-60b9-4948-88b6-fbca31e478ab"}},{"type":"Feature","id":"u_fc_poi_school.1223","geometry":{"type":"Point","coordinates":[3.1435,6.47297]},"geometry_name":"geom","properties":{"state_code":"LA","source":"GRID","name":"Doravic Nursery Primary And College","ward_code":"LASOJO07","category":"Primary","subtype":"Standard","management":"Private","education":"Formal","poi_type":"School","no_of_teachers":null,"no_of_students":null,"global_id":"0307d727-abce-492b-856b-33fd49ec7cab"}},{"type":"Feature","id":"u_fc_poi_school.1241","geometry":{"type":"Point","coordinates":[3.03882,6.49974]},"geometry_name":"geom","properties":{"state_code":"LA","source":"GRID","name":"Lireni School","ward_code":"LASBDY11","category":"Primary","subtype":"Standard","management":"Private","education":"Formal","poi_type":"School","no_of_teachers":null,"no_of_students":null,"global_id":"031456b9-4427-4d8b-b3dc-b13c3ea18ed9"}},{"type":"Feature","id":"u_fc_poi_school.1269","geometry":{"type":"Point","coordinates":[3.46886,6.64269]},"geometry_name":"geom","properties":{"state_code":"LA","source":"GRID","name":"Sessy High School","ward_code":"LASIKU28","category":"Primary","subtype":"Standard","management":"Private","education":"Formal","poi_type":"School","no_of_teachers":null,"no_of_students":null,"global_id":"03280c8e-9642-4a01-81be-9c20ad0c4f41"}},{"type":"Feature","id":"u_fc_poi_school.1271","geometry":{"type":"Point","coordinates":[3.360695,6.45773]},"geometry_name":"geom","properties":{"state_code":"LA","source":"NMIS","name":"Ife Nursery and Primary School","ward_code":"LASAPA09","category":"Primary","subtype":"Standard","management":"Private","education":"Formal","poi_type":"School","no_of_teachers":null,"no_of_students":null,"global_id":"032c5518-378f-4b1a-a726-19cc44549bf5"}},{"type":"Feature","id":"u_fc_poi_school.1273","geometry":{"type":"Point","coordinates":[3.26675,6.59873]},"geometry_name":"geom","properties":{"state_code":"LA","source":"GRID","name":"Dcaville Prep School","ward_code":"LASAMO16","category":"Pre Primary","subtype":"Nursery","management":"Private","education":"Formal","poi_type":"School","no_of_teachers":null,"no_of_students":null,"global_id":"032e0a83-873f-42f5-98f6-ba79c85053d7"}},{"type":"Feature","id":"u_fc_poi_school.1360","geometry":{"type":"Point","coordinates":[3.281,6.54509]},"geometry_name":"geom","properties":{"state_code":"LA","source":"GRID","name":"Manar School","ward_code":"LASAMO20","category":"Primary","subtype":"Standard","management":"Private","education":"Formal","poi_type":"School","no_of_teachers":18,"no_of_students":null,"global_id":"036ca872-d006-4b4d-91be-8e2668ee05f6"}},{"type":"Feature","id":"u_fc_poi_school.1362","geometry":{"type":"Point","coordinates":[3.3297107,6.4946691]},"geometry_name":"geom","properties":{"state_code":"LA","source":"GRID","name":"Blessed Day School","ward_code":"LASSUE02","category":"Primary","subtype":"Standard","management":"Private","education":"Formal","poi_type":"School","no_of_teachers":null,"no_of_students":null,"global_id":"036cd8b2-deac-4dc8-9cb9-c68a913b49f4"}},{"type":"Feature","id":"u_fc_poi_school.1364","geometry":{"type":"Point","coordinates":[3.68774,6.46122]},"geometry_name":"geom","properties":{"state_code":"LA","source":"GRID","name":"Future Bright School","ward_code":"LASIUI04","category":"Secondary","subtype":"Standard","management":"Private","education":"Formal","poi_type":"School","no_of_teachers":10,"no_of_students":100,"global_id":"036d8eb1-5741-4063-a4ed-0745733b9dfd"}},{"type":"Feature","id":"u_fc_poi_school.1383","geometry":{"type":"Point","coordinates":[3.28006,6.62822]},"geometry_name":"geom","properties":{"state_code":"LA","source":"GRID","name":"K S A Group Of School","ward_code":"LASAMO31","category":"Primary","subtype":"Standard","management":"Private","education":"Formal","poi_type":"School","no_of_teachers":10,"no_of_students":145,"global_id":"0379d263-3270-4f79-a813-f78ef8a3b209"}},{"type":"Feature","id":"u_fc_poi_school.1391","geometry":{"type":"Point","coordinates":[3.36803,6.4424388]},"geometry_name":"geom","properties":{"state_code":"LA","source":"GRID","name":"Methodist Nursery And Primary School","ward_code":"LASAPA02","category":"Primary","subtype":"Standard","management":"Private","education":"Formal","poi_type":"School","no_of_teachers":23,"no_of_students":396,"global_id":"037ec082-e05f-4e9a-9488-09d7a6f14088"}},{"type":"Feature","id":"u_fc_poi_school.1412","geometry":{"type":"Point","coordinates":[3.4544133,6.6710683]},"geometry_name":"geom","properties":{"state_code":"LA","source":"eHA Polio","name":"Priceless Academy College","ward_code":"LASIKU16","category":"Secondary","subtype":"Standard","management":"Private","education":"Formal","poi_type":"School","no_of_teachers":null,"no_of_students":null,"global_id":"038d8593-ed9f-4b63-9c84-1ee0e20501b1"}},{"type":"Feature","id":"u_fc_poi_school.1418","geometry":{"type":"Point","coordinates":[3.37602,6.52907]},"geometry_name":"geom","properties":{"state_code":"LA","source":"GRID","name":"Crown Gate School","ward_code":"LASSMU05","category":"Primary","subtype":"Standard","management":"Private","education":"Formal","poi_type":"School","no_of_teachers":null,"no_of_students":null,"global_id":"038f7938-a3db-418f-aaa3-1fa37d84cdf7"}},{"type":"Feature","id":"u_fc_poi_school.1424","geometry":{"type":"Point","coordinates":[3.28072,6.52887]},"geometry_name":"geom","properties":{"state_code":"LA","source":"GRID","name":"Fortbenny Royal College","ward_code":"LASAMO18","category":"Primary","subtype":"Standard","management":"Private","education":"Formal","poi_type":"School","no_of_teachers":32,"no_of_students":null,"global_id":"03937e51-d02d-4da5-8be8-78f4238a50a9"}},{"type":"Feature","id":"u_fc_poi_school.1430","geometry":{"type":"Point","coordinates":[3.55977,6.61115]},"geometry_name":"geom","properties":{"state_code":"LA","source":"GRID","name":"Judahland School","ward_code":"LASIKU29","category":"Primary","subtype":"Standard","management":"Private","education":"Formal","poi_type":"School","no_of_teachers":null,"no_of_students":null,"global_id":"0396004b-7276-42a3-a572-76089b482b7d"}},{"type":"Feature","id":"u_fc_poi_school.1475","geometry":{"type":"Point","coordinates":[3.59517,6.6645]},"geometry_name":"geom","properties":{"state_code":"LA","source":"GRID","name":"Lajos Nursery And Primary School","ward_code":"LASIKU18","category":"Primary","subtype":"Standard","management":"Private","education":"Formal","poi_type":"School","no_of_teachers":null,"no_of_students":null,"global_id":"03afc2a2-72b6-45f6-8f1e-b1222bd48be1"}},{"type":"Feature","id":"u_fc_poi_school.1510","geometry":{"type":"Point","coordinates":[3.26226,6.50987]},"geometry_name":"geom","properties":{"state_code":"LA","source":"GRID","name":"Remroyal Secondary School","ward_code":"LASAMO27","category":"Secondary","subtype":"Standard","management":"Private","education":"Formal","poi_type":"School","no_of_teachers":null,"no_of_students":null,"global_id":"03c3fdc3-ba79-43dd-93e2-17a6bd5e2b63"}},{"type":"Feature","id":"u_fc_poi_school.1511","geometry":{"type":"Point","coordinates":[3.29238,6.55545]},"geometry_name":"geom","properties":{"state_code":"LA","source":"GRID","name":"First Beulahfield College","ward_code":"LASOIO10","category":"Secondary","subtype":"Standard","management":"Private","education":"Formal","poi_type":"School","no_of_teachers":null,"no_of_students":null,"global_id":"03c47de6-8103-404a-ad40-edea5405e966"}},{"type":"Feature","id":"u_fc_poi_school.1536","geometry":{"type":"Point","coordinates":[3.37808,6.633356]},"geometry_name":"geom","properties":{"state_code":"LA","source":"NMIS","name":"Daily Light College","ward_code":"LASKSE12","category":"Secondary","subtype":"Standard","management":"Private","education":"Formal","poi_type":"School","no_of_teachers":null,"no_of_students":null,"global_id":"03d297f5-421e-41e3-a401-4547486cd1e6"}},{"type":"Feature","id":"u_fc_poi_school.1562","geometry":{"type":"Point","coordinates":[3.26104,6.60848]},"geometry_name":"geom","properties":{"state_code":"LA","source":"GRID","name":"Florescent Comprehensive Private School","ward_code":"LASAMO26","category":"Primary","subtype":"Standard","management":"Private","education":"Formal","poi_type":"School","no_of_teachers":null,"no_of_students":null,"global_id":"03e569d3-8b64-4b2c-8f3d-1ccbfb05a1f4"}},{"type":"Feature","id":"u_fc_poi_school.1565","geometry":{"type":"Point","coordinates":[3.39152,6.459646]},"geometry_name":"geom","properties":{"state_code":"LA","source":"NMIS","name":"Bab Salam Nursery and Primary School","ward_code":"LASLID10","category":"Primary","subtype":"Standard","management":"Private","education":"Formal","poi_type":"School","no_of_teachers":null,"no_of_students":null,"global_id":"03e7cbce-ceec-4ebd-bc32-9791630e3839"}},{"type":"Feature","id":"u_fc_poi_school.1616","geometry":{"type":"Point","coordinates":[3.3903714,6.570253]},"geometry_name":"geom","properties":{"state_code":"LA","source":"GRID","name":"Lead Forte Gate Primary School","ward_code":"LASKSE15","category":"Primary","subtype":"Standard","management":"Private","education":"Formal","poi_type":"School","no_of_teachers":null,"no_of_students":null,"global_id":"04066b4c-014a-44f8-b2ab-f7e020a8792b"}},{"type":"Feature","id":"u_fc_poi_school.1617","geometry":{"type":"Point","coordinates":[3.18246,6.45801]},"geometry_name":"geom","properties":{"state_code":"LA","source":"GRID","name":"Joyces Nursery School","ward_code":"LASOJO14","category":"Primary","subtype":"Standard","management":"Private","education":"Formal","poi_type":"School","no_of_teachers":7,"no_of_students":30,"global_id":"0406bcdb-195d-4839-9d76-b2114629d5ed"}},{"type":"Feature","id":"u_fc_poi_school.1673","geometry":{"type":"Point","coordinates":[3.3797626,6.49843]},"geometry_name":"geom","properties":{"state_code":"LA","source":"GRID","name":"Peret Diamond School","ward_code":"LASLMD05","category":"Primary","subtype":"Standard","management":"Private","education":"Formal","poi_type":"School","no_of_teachers":null,"no_of_students":null,"global_id":"041ff504-686c-4837-9a06-460d35494fae"}},{"type":"Feature","id":"u_fc_poi_school.1699","geometry":{"type":"Point","coordinates":[3.24342,6.59298]},"geometry_name":"geom","properties":{"state_code":"LA","source":"GRID","name":"Fadeelat Nursery And Primary School","ward_code":"LASAMO15","category":"Primary","subtype":"Standard","management":"Private","education":"Formal","poi_type":"School","no_of_teachers":3,"no_of_students":30,"global_id":"042c0fc0-20e2-4546-b8f8-c67e3a16f0d2"}},{"type":"Feature","id":"u_fc_poi_school.1700","geometry":{"type":"Point","coordinates":[3.7309,6.47795]},"geometry_name":"geom","properties":{"state_code":"LA","source":"GRID","name":"Barach Academy","ward_code":"LASIUI05","category":"Primary","subtype":"Standard","management":"Private","education":"Formal","poi_type":"School","no_of_teachers":5,"no_of_students":70,"global_id":"042c9a92-0fe3-4080-bc39-8905d4e29987"}},{"type":"Feature","id":"u_fc_poi_school.1712","geometry":{"type":"Point","coordinates":[3.381641,6.477605]},"geometry_name":"geom","properties":{"state_code":"LA","source":"NMIS","name":"Precious Star School","ward_code":"LASLMD16","category":"Primary","subtype":"Standard","management":"Private","education":"Formal","poi_type":"School","no_of_teachers":null,"no_of_students":null,"global_id":"0433e11c-357d-4ae9-b2a3-8f989d02df13"}},{"type":"Feature","id":"u_fc_poi_school.1738","geometry":{"type":"Point","coordinates":[3.3289921,6.4504359]},"geometry_name":"geom","properties":{"state_code":"LA","source":"GRID","name":"Rybeka Education Foundation","ward_code":"LASATO13","category":"Primary","subtype":"Standard","management":"Private","education":"Formal","poi_type":"School","no_of_teachers":null,"no_of_students":null,"global_id":"0443e315-9d18-4513-8c6b-5a27aa03990c"}},{"type":"Feature","id":"u_fc_poi_school.1747","geometry":{"type":"Point","coordinates":[3.3822599,6.604512]},"geometry_name":"geom","properties":{"state_code":"LA","source":"GRID","name":"Amplified School","ward_code":"LASKSE04","category":"Primary","subtype":"Standard","management":"Private","education":"Formal","poi_type":"School","no_of_teachers":null,"no_of_students":null,"global_id":"0449ded3-754a-4758-978d-4a6e187c2b83"}},{"type":"Feature","id":"u_fc_poi_school.1762","geometry":{"type":"Point","coordinates":[3.24822,6.53797]},"geometry_name":"geom","properties":{"state_code":"LA","source":"GRID","name":"Fawasil School","ward_code":"LASAMO01","category":"Primary","subtype":"Standard","management":"Private","education":"Formal","poi_type":"School","no_of_teachers":null,"no_of_students":null,"global_id":"045a5f28-fe57-4945-9fb1-036202199664"}},{"type":"Feature","id":"u_fc_poi_school.1804","geometry":{"type":"Point","coordinates":[3.22594,6.51336]},"geometry_name":"geom","properties":{"state_code":"LA","source":"GRID","name":"Blueoak College","ward_code":"LASAMO24","category":"Secondary","subtype":"Standard","management":"Private","education":"Formal","poi_type":"School","no_of_teachers":null,"no_of_students":null,"global_id":"04764475-dbbf-4f9a-a1db-82fd7c6337bd"}},{"type":"Feature","id":"u_fc_poi_school.1848","geometry":{"type":"Point","coordinates":[3.2551277,6.6199194]},"geometry_name":"geom","properties":{"state_code":"LA","source":"GRID","name":"Skylight Nursery And Primary School","ward_code":"LASAMO07","category":"Primary","subtype":"Standard","management":"Private","education":"Formal","poi_type":"School","no_of_teachers":12,"no_of_students":null,"global_id":"0492fcf7-4906-4ef7-b340-76d3a294106f"}},{"type":"Feature","id":"u_fc_poi_school.1907","geometry":{"type":"Point","coordinates":[3.2987188,6.5444405]},"geometry_name":"geom","properties":{"state_code":"LA","source":"GRID","name":"Hybrid College","ward_code":"LASOIO10","category":"Secondary","subtype":"Standard","management":"Private","education":"Formal","poi_type":"School","no_of_teachers":null,"no_of_students":null,"global_id":"04b1b7d1-4d1b-4d99-9d64-3ee9b3851dde"}},{"type":"Feature","id":"u_fc_poi_school.1916","geometry":{"type":"Point","coordinates":[3.28633,6.59281]},"geometry_name":"geom","properties":{"state_code":"LA","source":"GRID","name":"Gwat Private School","ward_code":"LASAMO33","category":"Primary","subtype":"Standard","management":"Private","education":"Formal","poi_type":"School","no_of_teachers":null,"no_of_students":null,"global_id":"04b571d6-f648-4e6a-aaa3-2ad36ad16430"}},{"type":"Feature","id":"u_fc_poi_school.2003","geometry":{"type":"Point","coordinates":[3.29953,6.58391]},"geometry_name":"geom","properties":{"state_code":"LA","source":"GRID","name":"Danique School","ward_code":"LASAMO30","category":"Primary","subtype":"Standard","management":"Private","education":"Formal","poi_type":"School","no_of_teachers":null,"no_of_students":null,"global_id":"04ec62a2-1e5a-4dfe-bb5d-815da941a3e5"}},{"type":"Feature","id":"u_fc_poi_school.2032","geometry":{"type":"Point","coordinates":[3.16035,6.45934]},"geometry_name":"geom","properties":{"state_code":"LA","source":"GRID","name":"Darsco International College","ward_code":"LASOJO07","category":"Primary","subtype":"Standard","management":"Private","education":"Formal","poi_type":"School","no_of_teachers":null,"no_of_students":null,"global_id":"04f78eb4-4a54-4b49-83af-f41eccc8bdc1"}},{"type":"Feature","id":"u_fc_poi_school.2064","geometry":{"type":"Point","coordinates":[3.24853,6.52146]},"geometry_name":"geom","properties":{"state_code":"LA","source":"GRID","name":"Divine Success School","ward_code":"LASAMO01","category":"Primary","subtype":"Standard","management":"Private","education":"Formal","poi_type":"School","no_of_teachers":null,"no_of_students":null,"global_id":"05078568-b856-4c18-937d-1d243cbb4b5f"}},{"type":"Feature","id":"u_fc_poi_school.2067","geometry":{"type":"Point","coordinates":[3.388094,6.633105]},"geometry_name":"geom","properties":{"state_code":"LA","source":"NMIS","name":"The Olivesfield School","ward_code":"LASKSE12","category":"Primary","subtype":"Standard","management":"Private","education":"Formal","poi_type":"School","no_of_teachers":null,"no_of_students":null,"global_id":"0507f910-8131-4b41-abb6-46eb45ddf5e8"}},{"type":"Feature","id":"u_fc_poi_school.2123","geometry":{"type":"Point","coordinates":[3.58888,6.6762]},"geometry_name":"geom","properties":{"state_code":"LA","source":"GRID","name":"The Lords Place School","ward_code":"LASIKU27","category":"Primary","subtype":"Standard","management":"Private","education":"Formal","poi_type":"School","no_of_teachers":null,"no_of_students":null,"global_id":"052e0e25-618e-4367-aea3-65ab226b2b11"}},{"type":"Feature","id":"u_fc_poi_school.2129","geometry":{"type":"Point","coordinates":[3.38809,6.50466]},"geometry_name":"geom","properties":{"state_code":"LA","source":"GRID","name":"Bamoricj School","ward_code":"LASLMD04","category":"Pre Primary","subtype":"Nursery","management":"Private","education":"Formal","poi_type":"School","no_of_teachers":10,"no_of_students":150,"global_id":"0534db50-b43b-4b48-b63a-ffbda040e656"}},{"type":"Feature","id":"u_fc_poi_school.2142","geometry":{"type":"Point","coordinates":[3.30621,6.50186]},"geometry_name":"geom","properties":{"state_code":"LA","source":"GRID","name":"Apple Orchard School","ward_code":"LASOIO18","category":"Primary","subtype":"Standard","management":"Private","education":"Formal","poi_type":"School","no_of_teachers":8,"no_of_students":50,"global_id":"053a00d8-e754-4c56-a235-4e31f9d7ea80"}},{"type":"Feature","id":"u_fc_poi_school.2188","geometry":{"type":"Point","coordinates":[3.401869,6.587031]},"geometry_name":"geom","properties":{"state_code":"LA","source":"NMIS","name":"Omolabake Nursery and Primary School","ward_code":"LASKSE03","category":"Primary","subtype":"Standard","management":"Private","education":"Formal","poi_type":"School","no_of_teachers":null,"no_of_students":null,"global_id":"05569311-9315-4870-a15a-d01b090b2aff"}},{"type":"Feature","id":"u_fc_poi_school.2262","geometry":{"type":"Point","coordinates":[4.1902205,6.3962247]},"geometry_name":"geom","properties":{"state_code":"LA","source":"GRID","name":"The Lords Seed Children School","ward_code":"LASIUI12","category":"Primary","subtype":"Standard","management":"Private","education":"Formal","poi_type":"School","no_of_teachers":null,"no_of_students":null,"global_id":"05866891-3e45-470d-a6c0-25cfe638e5ff"}},{"type":"Feature","id":"u_fc_poi_school.2266","geometry":{"type":"Point","coordinates":[3.17105,6.47938]},"geometry_name":"geom","properties":{"state_code":"LA","source":"GRID","name":"Trend International School","ward_code":"LASOJO01","category":"Primary","subtype":"Standard","management":"Private","education":"Formal","poi_type":"School","no_of_teachers":null,"no_of_students":null,"global_id":"0588540b-e241-481a-a66c-d314a9660a7f"}},{"type":"Feature","id":"u_fc_poi_school.2291","geometry":{"type":"Point","coordinates":[3.3596,6.64586]},"geometry_name":"geom","properties":{"state_code":"LA","source":"GRID","name":"Isolog School","ward_code":"LASIKA08","category":"Primary","subtype":"Standard","management":"Private","education":"Formal","poi_type":"School","no_of_teachers":null,"no_of_students":null,"global_id":"059d8e2a-666c-47d3-918f-1cd84c424ffd"}},{"type":"Feature","id":"u_fc_poi_school.2292","geometry":{"type":"Point","coordinates":[3.9631774,6.5878955]},"geometry_name":"geom","properties":{"state_code":"LA","source":"GRID","name":"Ab Nursery And Primary School Epe","ward_code":"LASEPE18","category":"Primary","subtype":"Standard","management":"Private","education":"Formal","poi_type":"School","no_of_teachers":null,"no_of_students":null,"global_id":"059e942d-2ef4-48da-8f40-74b5b6befcdd"}},{"type":"Feature","id":"u_fc_poi_school.2318","geometry":{"type":"Point","coordinates":[3.04649,6.46732]},"geometry_name":"geom","properties":{"state_code":"LA","source":"GRID","name":"Bright Star Academy","ward_code":"LASBDY08","category":"Primary","subtype":"Standard","management":"Private","education":"Formal","poi_type":"School","no_of_teachers":3,"no_of_students":18,"global_id":"05b05aee-43cf-46d2-93f2-dc9ac51a0712"}},{"type":"Feature","id":"u_fc_poi_school.2327","geometry":{"type":"Point","coordinates":[3.49463,6.66589]},"geometry_name":"geom","properties":{"state_code":"LA","source":"GRID","name":"Hilltop Group Of Schools Oloshugbo","ward_code":"LASIKU06","category":"Primary","subtype":"Standard","management":"Private","education":"Formal","poi_type":"School","no_of_teachers":null,"no_of_students":null,"global_id":"05ba1aec-0eec-47f0-9d70-afb2c440f68b"}},{"type":"Feature","id":"u_fc_poi_school.2364","geometry":{"type":"Point","coordinates":[3.26438,6.66372]},"geometry_name":"geom","properties":{"state_code":"LA","source":"GRID","name":"Lords Kiddies School","ward_code":"LASAMO11","category":"Pre Primary","subtype":"Nursery","management":"Private","education":"Formal","poi_type":"School","no_of_teachers":null,"no_of_students":null,"global_id":"05d1e52e-8401-44bf-8f2b-24c215f747cd"}},{"type":"Feature","id":"u_fc_poi_school.2382","geometry":{"type":"Point","coordinates":[3.9857941,6.6247672]},"geometry_name":"geom","properties":{"state_code":"LA","source":"GRID","name":"Lg Primary School","ward_code":"LASEPE14","category":"Primary","subtype":"Standard","management":"Private","education":"Formal","poi_type":"School","no_of_teachers":17,"no_of_students":281,"global_id":"05dc31c5-3bfa-4788-a5a1-6be280a5dce8"}},{"type":"Feature","id":"u_fc_poi_school.2407","geometry":{"type":"Point","coordinates":[3.385869,6.496554]},"geometry_name":"geom","properties":{"state_code":"LA","source":"NMIS","name":"Akachi Nursery and Primary School","ward_code":"LASLMD12","category":"Primary","subtype":"Pre Primary","management":"Private","education":"Formal","poi_type":"School","no_of_teachers":null,"no_of_students":null,"global_id":"05eb4af5-b94e-4488-a3e3-ece47e678b98"}},{"type":"Feature","id":"u_fc_poi_school.2409","geometry":{"type":"Point","coordinates":[3.3520592,6.5019381]},"geometry_name":"geom","properties":{"state_code":"LA","source":"GRID","name":"Homestead School","ward_code":"LASSUE23","category":"Primary","subtype":"Standard","management":"Private","education":"Formal","poi_type":"School","no_of_teachers":14,"no_of_students":254,"global_id":"05ee9ea1-180f-4e01-b5a4-a62116d53cab"}},{"type":"Feature","id":"u_fc_poi_school.2412","geometry":{"type":"Point","coordinates":[2.8882587,6.4318573]},"geometry_name":"geom","properties":{"state_code":"LA","source":"GRID","name":"St Micheals Alabi Stars School","ward_code":"LASBDY03","category":"Secondary","subtype":"Standard","management":"Private","education":"Formal","poi_type":"School","no_of_teachers":70311115,"no_of_students":230,"global_id":"05f0a73e-3b46-463a-9b66-9a51acdd7322"}},{"type":"Feature","id":"u_fc_poi_school.2420","geometry":{"type":"Point","coordinates":[3.29282,6.63277]},"geometry_name":"geom","properties":{"state_code":"LA","source":"GRID","name":"Bema Comprehensive High School","ward_code":"LASAMO31","category":"Secondary","subtype":"Standard","management":"Private","education":"Formal","poi_type":"School","no_of_teachers":10,"no_of_students":115,"global_id":"05f32042-6919-44ed-a975-a7d0ef5bfb56"}},{"type":"Feature","id":"u_fc_poi_school.2426","geometry":{"type":"Point","coordinates":[3.403934,6.592308]},"geometry_name":"geom","properties":{"state_code":"LA","source":"NMIS","name":"Jomchin Nursery and Primary School","ward_code":"LASKSE03","category":"Primary","subtype":"Standard","management":"Private","education":"Formal","poi_type":"School","no_of_teachers":null,"no_of_students":null,"global_id":"05f49391-688d-4bcf-a64f-ae41b1bea6ea"}},{"type":"Feature","id":"u_fc_poi_school.2449","geometry":{"type":"Point","coordinates":[2.88646,6.42891]},"geometry_name":"geom","properties":{"state_code":"LA","source":"GRID","name":"May Blossom Children School","ward_code":"LASBDY02","category":"Primary","subtype":"Standard","management":"Private","education":"Formal","poi_type":"School","no_of_teachers":56561389,"no_of_students":130,"global_id":"06005540-a0f3-4230-bb6c-507d87eadc2c"}},{"type":"Feature","id":"u_fc_poi_school.2500","geometry":{"type":"Point","coordinates":[3.3757144,6.6191416]},"geometry_name":"geom","properties":{"state_code":"LA","source":"GRID","name":"Karis School","ward_code":"LASKSE21","category":"Primary","subtype":"Standard","management":"Private","education":"Formal","poi_type":"School","no_of_teachers":null,"no_of_students":null,"global_id":"061d4a13-23b5-4b10-9a87-35383516165f"}},{"type":"Feature","id":"u_fc_poi_school.2502","geometry":{"type":"Point","coordinates":[3.5090929,6.6076087]},"geometry_name":"geom","properties":{"state_code":"LA","source":"GRID","name":"The First Tenderfoot School","ward_code":"LASIKU02","category":"Primary","subtype":"Standard","management":"Private","education":"Formal","poi_type":"School","no_of_teachers":null,"no_of_students":null,"global_id":"061f6333-6022-4b40-b57e-e93cab9e426b"}},{"type":"Feature","id":"u_fc_poi_school.2538","geometry":{"type":"Point","coordinates":[3.351882,6.475398]},"geometry_name":"geom","properties":{"state_code":"LA","source":"NMIS","name":"Starlink International College","ward_code":"LASAPA12","category":"Secondary","subtype":"Standard","management":"Private","education":"Formal","poi_type":"School","no_of_teachers":null,"no_of_students":null,"global_id":"0630ccf7-3816-4306-baf9-420e7edf9744"}},{"type":"Feature","id":"u_fc_poi_school.2554","geometry":{"type":"Point","coordinates":[3.23836,6.51277]},"geometry_name":"geom","properties":{"state_code":"LA","source":"GRID","name":"Tim East College","ward_code":"LASAMO24","category":"Primary","subtype":"Standard","management":"Private","education":"Formal","poi_type":"School","no_of_teachers":null,"no_of_students":null,"global_id":"0636630a-db4b-4f25-ba07-8e7a2058f9f0"}},{"type":"Feature","id":"u_fc_poi_school.2571","geometry":{"type":"Point","coordinates":[3.2578,6.55637]},"geometry_name":"geom","properties":{"state_code":"LA","source":"GRID","name":"Tomoye Nursery And Primary School","ward_code":"LASAMO25","category":"Primary","subtype":"Standard","management":"Private","education":"Formal","poi_type":"School","no_of_teachers":14,"no_of_students":82,"global_id":"0642ee56-d951-45b5-88bd-06a434efa6b1"}},{"type":"Feature","id":"u_fc_poi_school.2608","geometry":{"type":"Point","coordinates":[3.58488,6.49883]},"geometry_name":"geom","properties":{"state_code":"LA","source":"GRID","name":"Lords Gate School Ado Langbasa","ward_code":"LASEOA06","category":"Pre Primary","subtype":"Nursery","management":"Private","education":"Formal","poi_type":"School","no_of_teachers":null,"no_of_students":null,"global_id":"065a18d4-87e4-4c4e-acb1-b6d884b65ba2"}},{"type":"Feature","id":"u_fc_poi_school.2613","geometry":{"type":"Point","coordinates":[3.36539,6.63761]},"geometry_name":"geom","properties":{"state_code":"LA","source":"GRID","name":"Smallville Montessori School","ward_code":"LASIKA02","category":"Primary","subtype":"Standard","management":"Private","education":"Formal","poi_type":"School","no_of_teachers":null,"no_of_students":null,"global_id":"065dbb3f-c8c4-46f3-8c3d-cf3e07b2fab4"}},{"type":"Feature","id":"u_fc_poi_school.2634","geometry":{"type":"Point","coordinates":[3.04702,6.48898]},"geometry_name":"geom","properties":{"state_code":"LA","source":"GRID","name":"Our Lady Of Mercy Nursery And Primary School","ward_code":"LASBDY11","category":"Primary","subtype":"Standard","management":"Private","education":"Formal","poi_type":"School","no_of_teachers":8,"no_of_students":70,"global_id":"0668c362-3a4c-4b02-8569-67eb6b099361"}},{"type":"Feature","id":"u_fc_poi_school.2662","geometry":{"type":"Point","coordinates":[3.4093089,6.4320827]},"geometry_name":"geom","properties":{"state_code":"LA","source":"GRID","name":"Airforce Nursery And Primary School","ward_code":"LASEOA20","category":"Primary","subtype":"Standard","management":"Private","education":"Formal","poi_type":"School","no_of_teachers":null,"no_of_students":null,"global_id":"067c0604-2598-4989-af00-a9a2de454f78"}},{"type":"Feature","id":"u_fc_poi_school.2682","geometry":{"type":"Point","coordinates":[3.340221,6.638304]},"geometry_name":"geom","properties":{"state_code":"LA","source":"NMIS","name":"Highland School Aina Ajobo","ward_code":"LASIOE09","category":"Primary","subtype":"Primary","management":"Private","education":"Formal","poi_type":"School","no_of_teachers":null,"no_of_students":null,"global_id":"0689ee23-6070-449a-ac7e-a8889288f222"}},{"type":"Feature","id":"u_fc_poi_school.2684","geometry":{"type":"Point","coordinates":[3.3015132,6.5868979]},"geometry_name":"geom","properties":{"state_code":"LA","source":"GRID","name":"Livingstone College 2","ward_code":"LASAMO30","category":"Primary","subtype":"Standard","management":"Private","education":"Formal","poi_type":"School","no_of_teachers":null,"no_of_students":null,"global_id":"068a80d1-1075-45d8-b01c-cf94754f374a"}},{"type":"Feature","id":"u_fc_poi_school.2686","geometry":{"type":"Point","coordinates":[3.5337,6.59038]},"geometry_name":"geom","properties":{"state_code":"LA","source":"GRID","name":"Downtown School","ward_code":"LASIKU01","category":"Primary","subtype":"Standard","management":"Private","education":"Formal","poi_type":"School","no_of_teachers":11,"no_of_students":58,"global_id":"068b88cf-851e-4f0b-befc-bd4335f5ba17"}},{"type":"Feature","id":"u_fc_poi_school.2695","geometry":{"type":"Point","coordinates":[3.349625,6.50114]},"geometry_name":"geom","properties":{"state_code":"LA","source":"NMIS","name":"Somerset College","ward_code":"LASSUE01","category":"Secondary","subtype":"Standard","management":"Private","education":"Formal","poi_type":"School","no_of_teachers":null,"no_of_students":null,"global_id":"0690420c-1a16-4e89-9c08-3ad7075b1a66"}},{"type":"Feature","id":"u_fc_poi_school.2726","geometry":{"type":"Point","coordinates":[3.62731,6.47161]},"geometry_name":"geom","properties":{"state_code":"LA","source":"GRID","name":"Visionary School Sangotedo","ward_code":"LASEOA18","category":"Primary","subtype":"Standard","management":"Private","education":"Formal","poi_type":"School","no_of_teachers":16,"no_of_students":232,"global_id":"069c4bce-a2bc-429d-b0bc-cb815fc13d61"}},{"type":"Feature","id":"u_fc_poi_school.2744","geometry":{"type":"Point","coordinates":[3.26448,6.62055]},"geometry_name":"geom","properties":{"state_code":"LA","source":"GRID","name":"Mercan Brilliant Nursery And Basic School","ward_code":"LASAMO06","category":"Primary","subtype":"Standard","management":"Private","education":"Formal","poi_type":"School","no_of_teachers":null,"no_of_students":null,"global_id":"06a8c40f-1ba1-4226-beec-036c61912adf"}},{"type":"Feature","id":"u_fc_poi_school.2751","geometry":{"type":"Point","coordinates":[3.30621,6.61376]},"geometry_name":"geom","properties":{"state_code":"LA","source":"GRID","name":"The Potter Home School","ward_code":"LASAGG10","category":"Primary","subtype":"Standard","management":"Private","education":"Formal","poi_type":"School","no_of_teachers":6,"no_of_students":45,"global_id":"06ae8f9d-78a9-4d01-b4e6-3c84c7eadd8e"}},{"type":"Feature","id":"u_fc_poi_school.2762","geometry":{"type":"Point","coordinates":[3.51206,6.64398]},"geometry_name":"geom","properties":{"state_code":"LA","source":"GRID","name":"Waterspout School","ward_code":"LASIKU06","category":"Primary","subtype":"Standard","management":"Private","education":"Formal","poi_type":"School","no_of_teachers":2,"no_of_students":10,"global_id":"06b49a7d-8307-4fd5-8e6f-30e7f9d3e6d5"}},{"type":"Feature","id":"u_fc_poi_school.2782","geometry":{"type":"Point","coordinates":[3.02516,6.49905]},"geometry_name":"geom","properties":{"state_code":"LA","source":"GRID","name":"Fruitful Bough School","ward_code":"LASBDY13","category":"Primary","subtype":"Standard","management":"Private","education":"Formal","poi_type":"School","no_of_teachers":5,"no_of_students":40,"global_id":"06c74b8e-fb2b-4c57-b18f-529fb248bb60"}},{"type":"Feature","id":"u_fc_poi_school.2784","geometry":{"type":"Point","coordinates":[3.38353,6.63488]},"geometry_name":"geom","properties":{"state_code":"LA","source":"GRID","name":"Tamar Preparatory School","ward_code":"LASKSE12","category":"Pre Primary","subtype":"Nursery","management":"Private","education":"Formal","poi_type":"School","no_of_teachers":null,"no_of_students":null,"global_id":"06c8d631-a27f-4d0a-9161-080a24d8bec0"}},{"type":"Feature","id":"u_fc_poi_school.2817","geometry":{"type":"Point","coordinates":[3.17769,6.50551]},"geometry_name":"geom","properties":{"state_code":"LA","source":"GRID","name":"Love Ambassador School","ward_code":"LASOJO04","category":"Primary","subtype":"Standard","management":"Private","education":"Formal","poi_type":"School","no_of_teachers":null,"no_of_students":null,"global_id":"06dae450-88b6-4867-b189-5de5797b4614"}},{"type":"Feature","id":"u_fc_poi_school.2841","geometry":{"type":"Point","coordinates":[3.60162,6.61476]},"geometry_name":"geom","properties":{"state_code":"LA","source":"GRID","name":"Fazmeed Success School","ward_code":"LASIKU04","category":"Primary","subtype":"Standard","management":"Private","education":"Formal","poi_type":"School","no_of_teachers":null,"no_of_students":null,"global_id":"06e774d8-1351-4e4c-90da-bb8fbe169b5b"}},{"type":"Feature","id":"u_fc_poi_school.2869","geometry":{"type":"Point","coordinates":[3.67192,6.6772]},"geometry_name":"geom","properties":{"state_code":"LA","source":"GRID","name":"Wids Omfield School","ward_code":"LASIKU18","category":"Primary","subtype":"Standard","management":"Private","education":"Formal","poi_type":"School","no_of_teachers":null,"no_of_students":null,"global_id":"06fe537f-88e6-4da9-b73f-777d9d31b016"}},{"type":"Feature","id":"u_fc_poi_school.2878","geometry":{"type":"Point","coordinates":[3.25517,6.5552]},"geometry_name":"geom","properties":{"state_code":"LA","source":"GRID","name":"Tobset Bond School","ward_code":"LASAMO25","category":"Primary","subtype":"Standard","management":"Private","education":"Formal","poi_type":"School","no_of_teachers":null,"no_of_students":null,"global_id":"0704514f-854b-49d6-94c3-e18fe569fab6"}},{"type":"Feature","id":"u_fc_poi_school.2923","geometry":{"type":"Point","coordinates":[3.13844,6.45464]},"geometry_name":"geom","properties":{"state_code":"LA","source":"GRID","name":"Theo Wisdom Pupilage School","ward_code":"LASOJO03","category":"Primary","subtype":"Standard","management":"Private","education":"Formal","poi_type":"School","no_of_teachers":null,"no_of_students":null,"global_id":"071d2bd9-1407-4b69-95c5-e756c33c66b0"}},{"type":"Feature","id":"u_fc_poi_school.2949","geometry":{"type":"Point","coordinates":[3.25669,6.58934]},"geometry_name":"geom","properties":{"state_code":"LA","source":"GRID","name":"Glatet School","ward_code":"LASAMO13","category":"Primary","subtype":"Standard","management":"Private","education":"Formal","poi_type":"School","no_of_teachers":12,"no_of_students":null,"global_id":"0730f915-2e55-409f-ab04-48beb49431bd"}},{"type":"Feature","id":"u_fc_poi_school.2969","geometry":{"type":"Point","coordinates":[3.153157,6.4587511]},"geometry_name":"geom","properties":{"state_code":"LA","source":"GRID","name":"Cherish Private School","ward_code":"LASOJO03","category":"Primary","subtype":"Standard","management":"Private","education":"Formal","poi_type":"School","no_of_teachers":null,"no_of_students":null,"global_id":"073829f8-065d-499b-8e06-fe62f6e97c36"}},{"type":"Feature","id":"u_fc_poi_school.2974","geometry":{"type":"Point","coordinates":[3.26889,6.59071]},"geometry_name":"geom","properties":{"state_code":"LA","source":"GRID","name":"Enigreen School","ward_code":"LASAMO16","category":"Primary","subtype":"Standard","management":"Private","education":"Formal","poi_type":"School","no_of_teachers":null,"no_of_students":null,"global_id":"073e6112-dffe-46d2-b85d-5239259ee8db"}},{"type":"Feature","id":"u_fc_poi_school.2977","geometry":{"type":"Point","coordinates":[3.37253,6.58736]},"geometry_name":"geom","properties":{"state_code":"LA","source":"GRID","name":"Lohims Academy","ward_code":"LASIKA11","category":"Primary","subtype":"Standard","management":"Private","education":"Formal","poi_type":"School","no_of_teachers":null,"no_of_students":null,"global_id":"073f6dab-79ce-45c6-bada-8833f2eb1eeb"}},{"type":"Feature","id":"u_fc_poi_school.2991","geometry":{"type":"Point","coordinates":[3.3323757,6.4761312]},"geometry_name":"geom","properties":{"state_code":"LA","source":"GRID","name":"Expert Academy","ward_code":"LASSUE09","category":"Secondary","subtype":"Standard","management":"Private","education":"Formal","poi_type":"School","no_of_teachers":null,"no_of_students":null,"global_id":"074faa85-5eb5-46ab-a612-8917206a189c"}},{"type":"Feature","id":"u_fc_poi_school.3038","geometry":{"type":"Point","coordinates":[3.18258,6.46672]},"geometry_name":"geom","properties":{"state_code":"LA","source":"GRID","name":"Jolat Model Collets","ward_code":"LASOJO10","category":"Secondary","subtype":"Standard","management":"Private","education":"Formal","poi_type":"School","no_of_teachers":13,"no_of_students":161,"global_id":"076b2cac-7c76-49d9-a873-76b3d9df9955"}},{"type":"Feature","id":"u_fc_poi_school.3057","geometry":{"type":"Point","coordinates":[3.6075201,6.6035865]},"geometry_name":"geom","properties":{"state_code":"LA","source":"GRID","name":"Al Abraar School","ward_code":"LASIKU04","category":"Primary","subtype":"Standard","management":"Private","education":"Formal","poi_type":"School","no_of_teachers":null,"no_of_students":null,"global_id":"07780253-81f3-4bc7-9c8d-1bbe715155f9"}},{"type":"Feature","id":"u_fc_poi_school.3073","geometry":{"type":"Point","coordinates":[3.273598,6.557601]},"geometry_name":"geom","properties":{"state_code":"LA","source":"NMIS","name":"Sand Ville Private School","ward_code":"LASAMO22","category":"Primary","subtype":"Standard","management":"Private","education":"Formal","poi_type":"School","no_of_teachers":null,"no_of_students":null,"global_id":"0781ec14-cbae-4b9c-878c-eaee88ca86ca"}},{"type":"Feature","id":"u_fc_poi_school.3094","geometry":{"type":"Point","coordinates":[3.355292,6.470235]},"geometry_name":"geom","properties":{"state_code":"LA","source":"NMIS","name":"Ayodele Day Nursery and Primary School","ward_code":"LASAPA11","category":"Primary","subtype":"Standard","management":"Private","education":"Formal","poi_type":"School","no_of_teachers":null,"no_of_students":null,"global_id":"07948a3f-6a71-4873-9946-43e605dedeba"}},{"type":"Feature","id":"u_fc_poi_school.3104","geometry":{"type":"Point","coordinates":[3.25284,6.64335]},"geometry_name":"geom","properties":{"state_code":"LA","source":"GRID","name":"Addashom School","ward_code":"LASAMO07","category":"Primary","subtype":"Standard","management":"Private","education":"Formal","poi_type":"School","no_of_teachers":null,"no_of_students":null,"global_id":"079fcabf-70cc-4094-9087-75d10a032279"}},{"type":"Feature","id":"u_fc_poi_school.3110","geometry":{"type":"Point","coordinates":[3.54242,6.43857]},"geometry_name":"geom","properties":{"state_code":"LA","source":"GRID","name":"The Pottersland School","ward_code":"LASEOA08","category":"Primary","subtype":"Standard","management":"Private","education":"Formal","poi_type":"School","no_of_teachers":null,"no_of_students":null,"global_id":"07a66b35-8e8f-4bbc-b3dd-4d0f4f65f4fe"}},{"type":"Feature","id":"u_fc_poi_school.3116","geometry":{"type":"Point","coordinates":[3.18138,6.48568]},"geometry_name":"geom","properties":{"state_code":"LA","source":"GRID","name":"Blazing Glory Academy Igboelerin","ward_code":"LASOJO12","category":"Primary","subtype":"Standard","management":"Private","education":"Formal","poi_type":"School","no_of_teachers":9,"no_of_students":52,"global_id":"07abf085-dda8-49de-b964-136d7f33c06a"}},{"type":"Feature","id":"u_fc_poi_school.3124","geometry":{"type":"Point","coordinates":[3.51264,6.44161]},"geometry_name":"geom","properties":{"state_code":"LA","source":"GRID","name":"Ambrose School","ward_code":"LASEOA04","category":"Primary","subtype":"Standard","management":"Private","education":"Formal","poi_type":"School","no_of_teachers":null,"no_of_students":null,"global_id":"07afb67a-ff0a-4918-9be0-ca540f696b0a"}},{"type":"Feature","id":"u_fc_poi_school.3126","geometry":{"type":"Point","coordinates":[3.28912,6.67176]},"geometry_name":"geom","properties":{"state_code":"LA","source":"GRID","name":"Greater Gate School","ward_code":"LASIOE08","category":"Primary","subtype":"Standard","management":"Private","education":"Formal","poi_type":"School","no_of_teachers":null,"no_of_students":null,"global_id":"07b5709f-07e4-4e2f-b14b-35cd77a9872d"}},{"type":"Feature","id":"u_fc_poi_school.3134","geometry":{"type":"Point","coordinates":[3.59582,6.49243]},"geometry_name":"geom","properties":{"state_code":"LA","source":"GRID","name":"Living Souls School","ward_code":"LASEOA02","category":"Primary","subtype":"Standard","management":"Private","education":"Formal","poi_type":"School","no_of_teachers":null,"no_of_students":null,"global_id":"07b96c78-f704-4446-8467-135afd3ff88d"}},{"type":"Feature","id":"u_fc_poi_school.3160","geometry":{"type":"Point","coordinates":[3.2386,6.53448]},"geometry_name":"geom","properties":{"state_code":"LA","source":"GRID","name":"Alpha Mega Comprehensive School","ward_code":"LASAMO01","category":"Primary","subtype":"Standard","management":"Private","education":"Formal","poi_type":"School","no_of_teachers":null,"no_of_students":null,"global_id":"07c97cd2-9366-48a3-9fb3-d4546ed14b30"}},{"type":"Feature","id":"u_fc_poi_school.3181","geometry":{"type":"Point","coordinates":[3.339533,6.458776]},"geometry_name":"geom","properties":{"state_code":"LA","source":"NMIS","name":"Garden of Peace Nursery and Primary School","ward_code":"LASATO10","category":"Primary","subtype":"Standard","management":"Private","education":"Formal","poi_type":"School","no_of_teachers":null,"no_of_students":null,"global_id":"07d9e6a7-b31b-47a6-8cca-94e8de1ac9fa"}},{"type":"Feature","id":"u_fc_poi_school.3190","geometry":{"type":"Point","coordinates":[3.2984,6.67551]},"geometry_name":"geom","properties":{"state_code":"LA","source":"GRID","name":"Good Foundation Children School","ward_code":"LASIOE07","category":"Primary","subtype":"Standard","management":"Private","education":"Formal","poi_type":"School","no_of_teachers":null,"no_of_students":null,"global_id":"07e10d77-2e6c-4f60-8aac-2fe2b0d62f9e"}},{"type":"Feature","id":"u_fc_poi_school.3223","geometry":{"type":"Point","coordinates":[3.3576189,6.4687275]},"geometry_name":"geom","properties":{"state_code":"LA","source":"GRID","name":"Korede Nursery And Primary School","ward_code":"LASAPA06","category":"Primary","subtype":"Standard","management":"Private","education":"Formal","poi_type":"School","no_of_teachers":null,"no_of_students":null,"global_id":"07f5aedf-a37b-4bae-8aef-8b18b74dfa86"}},{"type":"Feature","id":"u_fc_poi_school.3234","geometry":{"type":"Point","coordinates":[3.33188,6.47536]},"geometry_name":"geom","properties":{"state_code":"LA","source":"GRID","name":"Childs World School","ward_code":"LASSUE09","category":"Primary","subtype":"Standard","management":"Private","education":"Formal","poi_type":"School","no_of_teachers":null,"no_of_students":null,"global_id":"07fbf613-00f6-4965-b394-58bdc0ed2e41"}},{"type":"Feature","id":"u_fc_poi_school.3271","geometry":{"type":"Point","coordinates":[3.69775,6.46957]},"geometry_name":"geom","properties":{"state_code":"LA","source":"GRID","name":"Leycot School","ward_code":"LASIUI04","category":"Primary","subtype":"Standard","management":"Private","education":"Formal","poi_type":"School","no_of_teachers":null,"no_of_students":null,"global_id":"080ec3b7-2f69-478a-86b8-4d1e430d4599"}},{"type":"Feature","id":"u_fc_poi_school.3310","geometry":{"type":"Point","coordinates":[3.52519,6.54879]},"geometry_name":"geom","properties":{"state_code":"LA","source":"GRID","name":"Graceland Nursery And Primary School","ward_code":"LASIKU01","category":"Primary","subtype":"Standard","management":"Private","education":"Formal","poi_type":"School","no_of_teachers":3,"no_of_students":25,"global_id":"08290ded-db87-4bb0-8d24-8dc2a7b8c523"}},{"type":"Feature","id":"u_fc_poi_school.3339","geometry":{"type":"Point","coordinates":[3.30724,6.65276]},"geometry_name":"geom","properties":{"state_code":"LA","source":"GRID","name":"Grains Royale International School","ward_code":"LASIOE01","category":"Secondary","subtype":"Standard","management":"Private","education":"Formal","poi_type":"School","no_of_teachers":null,"no_of_students":null,"global_id":"083b3bcd-f5ad-4fcf-8400-742842c6740c"}},{"type":"Feature","id":"u_fc_poi_school.3359","geometry":{"type":"Point","coordinates":[3.70914,6.47537]},"geometry_name":"geom","properties":{"state_code":"LA","source":"GRID","name":"Alma Heights School","ward_code":"LASIUI04","category":"Primary","subtype":"Standard","management":"Private","education":"Formal","poi_type":"School","no_of_teachers":null,"no_of_students":null,"global_id":"084788eb-9aa3-4127-9bae-0739b693d3f2"}},{"type":"Feature","id":"u_fc_poi_school.3366","geometry":{"type":"Point","coordinates":[3.26447,6.50945]},"geometry_name":"geom","properties":{"state_code":"LA","source":"GRID","name":"New Light School","ward_code":"LASAMO27","category":"Primary","subtype":"Standard","management":"Private","education":"Formal","poi_type":"School","no_of_teachers":null,"no_of_students":null,"global_id":"084b364a-26da-4fec-a278-3eb848f5840b"}},{"type":"Feature","id":"u_fc_poi_school.3369","geometry":{"type":"Point","coordinates":[3.289093,6.665401]},"geometry_name":"geom","properties":{"state_code":"LA","source":"NMIS","name":"St Anthony Nursery and Primary School","ward_code":"LASIOE07","category":"Primary","subtype":"Standard","management":"Private","education":"Formal","poi_type":"School","no_of_teachers":null,"no_of_students":null,"global_id":"084e3aa8-a20a-4626-bb3c-ed2c6611b220"}},{"type":"Feature","id":"u_fc_poi_school.3370","geometry":{"type":"Point","coordinates":[3.3955729,6.6160784]},"geometry_name":"geom","properties":{"state_code":"LA","source":"GRID","name":"Bolorunduro Secondary School","ward_code":"LASKSE21","category":"Secondary","subtype":"Standard","management":"Private","education":"Formal","poi_type":"School","no_of_teachers":null,"no_of_students":null,"global_id":"084e654c-7f5c-4e33-8987-6b85e05cda3c"}},{"type":"Feature","id":"u_fc_poi_school.3389","geometry":{"type":"Point","coordinates":[3.35213,6.58262]},"geometry_name":"geom","properties":{"state_code":"LA","source":"GRID","name":"The Nurture Zone School","ward_code":"LASIKA06","category":"Primary","subtype":"Standard","management":"Private","education":"Formal","poi_type":"School","no_of_teachers":null,"no_of_students":null,"global_id":"08572064-9ebb-4c01-9a28-b3cf20571bc3"}},{"type":"Feature","id":"u_fc_poi_school.3416","geometry":{"type":"Point","coordinates":[3.48636,6.66843]},"geometry_name":"geom","properties":{"state_code":"LA","source":"GRID","name":"Olive Light Academy","ward_code":"LASIKU06","category":"Primary","subtype":"Standard","management":"Private","education":"Formal","poi_type":"School","no_of_teachers":null,"no_of_students":null,"global_id":"086b06b5-e61c-485b-9ad2-2c44e1801e60"}},{"type":"Feature","id":"u_fc_poi_school.3432","geometry":{"type":"Point","coordinates":[3.5323,6.59958]},"geometry_name":"geom","properties":{"state_code":"LA","source":"GRID","name":"First Garland School","ward_code":"LASIKU29","category":"Primary","subtype":"Standard","management":"Private","education":"Formal","poi_type":"School","no_of_teachers":null,"no_of_students":null,"global_id":"087413be-5559-4793-95fa-e3ce88dc70ec"}},{"type":"Feature","id":"u_fc_poi_school.3445","geometry":{"type":"Point","coordinates":[3.32637,6.48914]},"geometry_name":"geom","properties":{"state_code":"LA","source":"GRID","name":"John Bright Comprehensive School","ward_code":"LASSUE03","category":"Primary","subtype":"Standard","management":"Private","education":"Formal","poi_type":"School","no_of_teachers":null,"no_of_students":null,"global_id":"087d7dcd-a01a-462d-8728-869a4b2f25e0"}},{"type":"Feature","id":"u_fc_poi_school.3537","geometry":{"type":"Point","coordinates":[3.30233,6.58274]},"geometry_name":"geom","properties":{"state_code":"LA","source":"GRID","name":"Glorious Twinkling Stars Private School","ward_code":"LASAMO30","category":"Primary","subtype":"Standard","management":"Private","education":"Formal","poi_type":"School","no_of_teachers":null,"no_of_students":null,"global_id":"08c278bf-beab-4142-adfa-b73806e1ee2b"}},{"type":"Feature","id":"u_fc_poi_school.3538","geometry":{"type":"Point","coordinates":[3.38009,6.52896]},"geometry_name":"geom","properties":{"state_code":"LA","source":"GRID","name":"Bright Flame Academy","ward_code":"LASSMU04","category":"Primary","subtype":"Standard","management":"Private","education":"Formal","poi_type":"School","no_of_teachers":null,"no_of_students":null,"global_id":"08c459c2-4a70-4f3a-a85c-2f2a23043776"}},{"type":"Feature","id":"u_fc_poi_school.3549","geometry":{"type":"Point","coordinates":[3.16561,6.46259]},"geometry_name":"geom","properties":{"state_code":"LA","source":"GRID","name":"Hauw International School","ward_code":"LASOJO07","category":"Primary","subtype":"Standard","management":"Private","education":"Formal","poi_type":"School","no_of_teachers":15,"no_of_students":102,"global_id":"08c9ac3b-a2c1-4db0-ba7d-df2d7378f9d3"}},{"type":"Feature","id":"u_fc_poi_school.3572","geometry":{"type":"Point","coordinates":[3.55118,6.65074]},"geometry_name":"geom","properties":{"state_code":"LA","source":"GRID","name":"Treasure Builder School","ward_code":"LASIKU12","category":"Primary","subtype":"Standard","management":"Private","education":"Formal","poi_type":"School","no_of_teachers":null,"no_of_students":null,"global_id":"08da43c0-5649-4d62-a569-289dfbf301de"}},{"type":"Feature","id":"u_fc_poi_school.3596","geometry":{"type":"Point","coordinates":[3.3266713,6.5223018]},"geometry_name":"geom","properties":{"state_code":"LA","source":"GRID","name":"De Glory Nursery And Primary School","ward_code":"LASOIO14","category":"Primary","subtype":"Standard","management":"Private","education":"Formal","poi_type":"School","no_of_teachers":null,"no_of_students":null,"global_id":"08e43560-6fd8-4662-b0f9-d21d7017f3aa"}},{"type":"Feature","id":"u_fc_poi_school.3615","geometry":{"type":"Point","coordinates":[3.3067552,6.5275583]},"geometry_name":"geom","properties":{"state_code":"LA","source":"GRID","name":"Marybene School","ward_code":"LASOIO17","category":"Secondary","subtype":"Standard","management":"Private","education":"Formal","poi_type":"School","no_of_teachers":null,"no_of_students":null,"global_id":"08f2d1e0-1d12-4fa8-9ab6-338f49a1cc24"}},{"type":"Feature","id":"u_fc_poi_school.3639","geometry":{"type":"Point","coordinates":[3.54307,6.56431]},"geometry_name":"geom","properties":{"state_code":"LA","source":"GRID","name":"The Iconic College School","ward_code":"LASIKU19","category":"Secondary","subtype":"Standard","management":"Private","education":"Formal","poi_type":"School","no_of_teachers":null,"no_of_students":null,"global_id":"08feaa0d-63ee-403f-9eb8-4313e8b9df65"}},{"type":"Feature","id":"u_fc_poi_school.3640","geometry":{"type":"Point","coordinates":[3.238763,6.5811149]},"geometry_name":"geom","properties":{"state_code":"LA","source":"GRID","name":"Marg Phils College","ward_code":"LASAMO15","category":"Secondary","subtype":"Standard","management":"Private","education":"Formal","poi_type":"School","no_of_teachers":null,"no_of_students":null,"global_id":"08fed24c-9cb3-4b75-baab-10b5ad97f958"}},{"type":"Feature","id":"u_fc_poi_school.3650","geometry":{"type":"Point","coordinates":[3.26016,6.54829]},"geometry_name":"geom","properties":{"state_code":"LA","source":"GRID","name":"Assemblies Of God","ward_code":"LASAMO01","category":"Primary","subtype":"Standard","management":"Private","education":"Formal","poi_type":"School","no_of_teachers":null,"no_of_students":null,"global_id":"0904bae9-301a-40b6-9463-c62dcaaa62cf"}},{"type":"Feature","id":"u_fc_poi_school.3665","geometry":{"type":"Point","coordinates":[3.26646,6.54118]},"geometry_name":"geom","properties":{"state_code":"LA","source":"GRID","name":"Antie Yemi School","ward_code":"LASAMO25","category":"Primary","subtype":"Standard","management":"Private","education":"Formal","poi_type":"School","no_of_teachers":null,"no_of_students":null,"global_id":"090f7239-67c0-4c97-aad4-a6ca7049877f"}},{"type":"Feature","id":"u_fc_poi_school.3668","geometry":{"type":"Point","coordinates":[3.3822914,6.5989811]},"geometry_name":"geom","properties":{"state_code":"LA","source":"GRID","name":"Crown Jewel College","ward_code":"LASKSE04","category":"Primary","subtype":"Standard","management":"Private","education":"Formal","poi_type":"School","no_of_teachers":null,"no_of_students":null,"global_id":"090faceb-79f1-4f01-89f1-8fe720b0d652"}},{"type":"Feature","id":"u_fc_poi_school.3720","geometry":{"type":"Point","coordinates":[3.3411852,6.4639748]},"geometry_name":"geom","properties":{"state_code":"LA","source":"GRID","name":"Tolyfun International School","ward_code":"LASATO05","category":"Primary","subtype":"Standard","management":"Private","education":"Formal","poi_type":"School","no_of_teachers":null,"no_of_students":null,"global_id":"0935415f-9f40-4f44-bac3-5522b6f52e9b"}},{"type":"Feature","id":"u_fc_poi_school.3736","geometry":{"type":"Point","coordinates":[3.75927,6.46913]},"geometry_name":"geom","properties":{"state_code":"LA","source":"GRID","name":"Fel Eben Montessori School","ward_code":"LASIUI05","category":"Primary","subtype":"Standard","management":"Private","education":"Formal","poi_type":"School","no_of_teachers":20,"no_of_students":3000,"global_id":"0943d8b1-43b9-4123-920a-51b180156ae9"}},{"type":"Feature","id":"u_fc_poi_school.3772","geometry":{"type":"Point","coordinates":[3.237362,6.557648]},"geometry_name":"geom","properties":{"state_code":"LA","source":"NMIS","name":"Jon Bitrice College","ward_code":"LASAMO23","category":"Secondary","subtype":"Standard","management":"Private","education":"Formal","poi_type":"School","no_of_teachers":null,"no_of_students":null,"global_id":"094ecf98-c41e-4919-9ae5-82a30938f042"}},{"type":"Feature","id":"u_fc_poi_school.3784","geometry":{"type":"Point","coordinates":[3.335704,6.645833]},"geometry_name":"geom","properties":{"state_code":"LA","source":"NMIS","name":"Gospel Private Nursery and Primary School","ward_code":"LASIOE05","category":"Primary","subtype":"Standard","management":"Private","education":"Formal","poi_type":"School","no_of_teachers":null,"no_of_students":null,"global_id":"095aa7e3-ee62-4bec-986d-aa611fe1f611"}},{"type":"Feature","id":"u_fc_poi_school.3799","geometry":{"type":"Point","coordinates":[3.29275,6.52725]},"geometry_name":"geom","properties":{"state_code":"LA","source":"GRID","name":"Micdonvil Private School","ward_code":"LASOIO03","category":"Primary","subtype":"Standard","management":"Private","education":"Formal","poi_type":"School","no_of_teachers":null,"no_of_students":null,"global_id":"096264d2-4763-4943-be71-643f1dcc5f1a"}},{"type":"Feature","id":"u_fc_poi_school.3801","geometry":{"type":"Point","coordinates":[3.365977,6.530094]},"geometry_name":"geom","properties":{"state_code":"LA","source":"NMIS","name":"Diverse Nursery and Primary School","ward_code":"LASMUN10","category":"Primary","subtype":"Standard","management":"Private","education":"Formal","poi_type":"School","no_of_teachers":null,"no_of_students":null,"global_id":"096311ae-bf92-48f9-b38f-b7bcccf350a4"}},{"type":"Feature","id":"u_fc_poi_school.3818","geometry":{"type":"Point","coordinates":[3.7053,6.48114]},"geometry_name":"geom","properties":{"state_code":"LA","source":"GRID","name":"Abcell Secondary School","ward_code":"LASIUI04","category":"Secondary","subtype":"Standard","management":"Private","education":"Formal","poi_type":"School","no_of_teachers":5,"no_of_students":62,"global_id":"096e9603-e534-41b7-ad9a-55271a1cbf69"}},{"type":"Feature","id":"u_fc_poi_school.3834","geometry":{"type":"Point","coordinates":[3.394724,6.450441]},"geometry_name":"geom","properties":{"state_code":"LA","source":"NMIS","name":"Ebenezer Baptist Church Nursery and Primary School","ward_code":"LASLID01","category":"Primary","subtype":"Standard","management":"Private","education":"Formal","poi_type":"School","no_of_teachers":null,"no_of_students":null,"global_id":"0977084e-12f4-43d4-aa4f-847f0f8e797d"}},{"type":"Feature","id":"u_fc_poi_school.3850","geometry":{"type":"Point","coordinates":[3.368723,6.620921]},"geometry_name":"geom","properties":{"state_code":"LA","source":"NMIS","name":"Kiddies Company School","ward_code":"LASKSE21","category":"Primary","subtype":"Standard","management":"Private","education":"Formal","poi_type":"School","no_of_teachers":null,"no_of_students":null,"global_id":"0980575c-cde4-49c7-ac0a-767d7e67fbe6"}},{"type":"Feature","id":"u_fc_poi_school.3913","geometry":{"type":"Point","coordinates":[3.45559,6.4458]},"geometry_name":"geom","properties":{"state_code":"LA","source":"GRID","name":"Blossom Vine School","ward_code":"LASEOA01","category":"Primary","subtype":"Standard","management":"Private","education":"Formal","poi_type":"School","no_of_teachers":null,"no_of_students":null,"global_id":"09a87638-2de2-4076-aa1c-93318a09f68f"}},{"type":"Feature","id":"u_fc_poi_school.3941","geometry":{"type":"Point","coordinates":[2.875943,6.419992]},"geometry_name":"geom","properties":{"state_code":"LA","source":"NMIS","name":"Acada Group of Schools","ward_code":"LASBDY16","category":"Primary","subtype":"Standard","management":"Private","education":"Formal","poi_type":"School","no_of_teachers":null,"no_of_students":null,"global_id":"09b76b09-9913-4735-a053-0a1926e37625"}},{"type":"Feature","id":"u_fc_poi_school.3956","geometry":{"type":"Point","coordinates":[3.26833,6.55718]},"geometry_name":"geom","properties":{"state_code":"LA","source":"GRID","name":"Jolabell International School","ward_code":"LASAMO28","category":"Primary","subtype":"Standard","management":"Private","education":"Formal","poi_type":"School","no_of_teachers":15,"no_of_students":200,"global_id":"09c3a9e7-f065-4df1-84c0-cdd6356a11fe"}},{"type":"Feature","id":"u_fc_poi_school.3962","geometry":{"type":"Point","coordinates":[3.7079,6.4601]},"geometry_name":"geom","properties":{"state_code":"LA","source":"GRID","name":"The Leeki Ridge School","ward_code":"LASIUI04","category":"Pre Primary","subtype":"Nursery","management":"Private","education":"Formal","poi_type":"School","no_of_teachers":null,"no_of_students":null,"global_id":"09c612cc-8c03-4198-b82e-b5f5fb94d272"}},{"type":"Feature","id":"u_fc_poi_school.3974","geometry":{"type":"Point","coordinates":[3.3255659,6.5507916]},"geometry_name":"geom","properties":{"state_code":"LA","source":"GRID","name":"Sigal World International School","ward_code":"LASOIO04","category":"Primary","subtype":"Standard","management":"Private","education":"Formal","poi_type":"School","no_of_teachers":null,"no_of_students":null,"global_id":"09caf9ed-5b73-4b19-95d1-83316d99fcab"}},{"type":"Feature","id":"u_fc_poi_school.4009","geometry":{"type":"Point","coordinates":[3.3393574,6.5550375]},"geometry_name":"geom","properties":{"state_code":"LA","source":"GRID","name":"Gods Love School","ward_code":"LASOIO01","category":"Primary","subtype":"Standard","management":"Private","education":"Formal","poi_type":"School","no_of_teachers":null,"no_of_students":null,"global_id":"09e2a8a9-b21e-4a91-a1aa-3d8852c56d39"}},{"type":"Feature","id":"u_fc_poi_school.4015","geometry":{"type":"Point","coordinates":[3.353509,6.468666]},"geometry_name":"geom","properties":{"state_code":"LA","source":"NMIS","name":"Al Barika Private School","ward_code":"LASAPA07","category":"Primary","subtype":"Primary","management":"Private","education":"Integrated","poi_type":"School","no_of_teachers":null,"no_of_students":null,"global_id":"09e4f5ed-885c-44c3-982b-197dc1455250"}},{"type":"Feature","id":"u_fc_poi_school.4030","geometry":{"type":"Point","coordinates":[3.3260249,6.5243092]},"geometry_name":"geom","properties":{"state_code":"LA","source":"GRID","name":"Eve Kids Care School","ward_code":"LASOIO14","category":"Primary","subtype":"Standard","management":"Private","education":"Formal","poi_type":"School","no_of_teachers":null,"no_of_students":null,"global_id":"09ee8de8-d17e-4968-9665-2b9e2a425b27"}},{"type":"Feature","id":"u_fc_poi_school.4038","geometry":{"type":"Point","coordinates":[3.356177,6.467867]},"geometry_name":"geom","properties":{"state_code":"LA","source":"NMIS","name":"Oluwatoyin Nursery and Primary School","ward_code":"LASAPA06","category":"Primary","subtype":"Standard","management":"Private","education":"Formal","poi_type":"School","no_of_teachers":null,"no_of_students":null,"global_id":"09f3801e-9a39-497a-afb9-1833bf679f62"}},{"type":"Feature","id":"u_fc_poi_school.4042","geometry":{"type":"Point","coordinates":[3.22531,6.55607]},"geometry_name":"geom","properties":{"state_code":"LA","source":"GRID","name":"Firstard Private School","ward_code":"LASAMO17","category":"Primary","subtype":"Standard","management":"Private","education":"Formal","poi_type":"School","no_of_teachers":null,"no_of_students":null,"global_id":"09f56b24-9fde-4ba2-92cb-6fff317c33f6"}},{"type":"Feature","id":"u_fc_poi_school.4043","geometry":{"type":"Point","coordinates":[3.30235,6.6021]},"geometry_name":"geom","properties":{"state_code":"LA","source":"GRID","name":"Rainbow Early Centre","ward_code":"LASAMO34","category":"Primary","subtype":"Standard","management":"Private","education":"Formal","poi_type":"School","no_of_teachers":null,"no_of_students":null,"global_id":"09f65882-42a8-49a0-a197-7553469001e8"}},{"type":"Feature","id":"u_fc_poi_school.4053","geometry":{"type":"Point","coordinates":[3.29508,6.56048]},"geometry_name":"geom","properties":{"state_code":"LA","source":"GRID","name":"Nantro Kg Nursery And Primary School","ward_code":"LASOIO02","category":"Primary","subtype":"Standard","management":"Private","education":"Formal","poi_type":"School","no_of_teachers":12,"no_of_students":115,"global_id":"09f8ecb6-a68a-4bc4-86e1-7486407452f7"}},{"type":"Feature","id":"u_fc_poi_school.4063","geometry":{"type":"Point","coordinates":[3.364655,6.6364778]},"geometry_name":"geom","properties":{"state_code":"LA","source":"GRID","name":"Mind Builders Primary School","ward_code":"LASIKA02","category":"Primary","subtype":"Standard","management":"Private","education":"Formal","poi_type":"School","no_of_teachers":null,"no_of_students":null,"global_id":"09fd5f2a-348f-4d8f-8187-1d4e34530a4e"}},{"type":"Feature","id":"u_fc_poi_school.4066","geometry":{"type":"Point","coordinates":[3.48236,6.62289]},"geometry_name":"geom","properties":{"state_code":"LA","source":"GRID","name":"Daniel School","ward_code":"LASIKU28","category":"Primary","subtype":"Standard","management":"Private","education":"Formal","poi_type":"School","no_of_teachers":null,"no_of_students":null,"global_id":"09ff091b-8f1b-47d3-b446-aa79efa248ab"}},{"type":"Feature","id":"u_fc_poi_school.4076","geometry":{"type":"Point","coordinates":[3.30419,6.55602]},"geometry_name":"geom","properties":{"state_code":"LA","source":"GRID","name":"Simid Children School","ward_code":"LASOIO02","category":"Primary","subtype":"Standard","management":"Private","education":"Formal","poi_type":"School","no_of_teachers":null,"no_of_students":null,"global_id":"0a06ba72-937d-4db3-aa74-9b3c75ea4239"}},{"type":"Feature","id":"u_fc_poi_school.4083","geometry":{"type":"Point","coordinates":[3.2989484,6.6741151]},"geometry_name":"geom","properties":{"state_code":"LA","source":"GRID","name":"Reima Royal Primary School","ward_code":"LASIOE07","category":"Primary","subtype":"Standard","management":"Private","education":"Formal","poi_type":"School","no_of_teachers":null,"no_of_students":null,"global_id":"0a0abfea-a795-44f8-bf42-59afc1c203d4"}},{"type":"Feature","id":"u_fc_poi_school.4141","geometry":{"type":"Point","coordinates":[3.62932,6.47093]},"geometry_name":"geom","properties":{"state_code":"LA","source":"GRID","name":"Christ The Rock Of Ages International School Sangotedo","ward_code":"LASEOA18","category":"Primary","subtype":"Standard","management":"Private","education":"Formal","poi_type":"School","no_of_teachers":19,"no_of_students":165,"global_id":"0a2d2ba0-afcb-4dc1-8333-3e3c1d044787"}},{"type":"Feature","id":"u_fc_poi_school.4152","geometry":{"type":"Point","coordinates":[3.382652,6.458863]},"geometry_name":"geom","properties":{"state_code":"LA","source":"NMIS","name":"Demaco Nursery and Primary School","ward_code":"LASLID15","category":"Primary","subtype":"Standard","management":"Private","education":"Formal","poi_type":"School","no_of_teachers":null,"no_of_students":null,"global_id":"0a33d0a0-4608-4f4e-9c1e-e0bb2be26184"}},{"type":"Feature","id":"u_fc_poi_school.4154","geometry":{"type":"Point","coordinates":[3.54441,6.56369]},"geometry_name":"geom","properties":{"state_code":"LA","source":"GRID","name":"Semi Faith Living Spring School","ward_code":"LASIKU19","category":"Secondary","subtype":"Standard","management":"Private","education":"Formal","poi_type":"School","no_of_teachers":4,"no_of_students":4,"global_id":"0a3495a2-3f82-4e37-996f-aa9b328f1d5d"}},{"type":"Feature","id":"u_fc_poi_school.4214","geometry":{"type":"Point","coordinates":[3.384218,6.486571]},"geometry_name":"geom","properties":{"state_code":"LA","source":"NMIS","name":"Bridge College","ward_code":"LASLMD09","category":"Secondary","subtype":"Standard","management":"Private","education":"Formal","poi_type":"School","no_of_teachers":null,"no_of_students":null,"global_id":"0a5aaf60-6958-412b-9887-83640b736fe1"}},