{"type":"FeatureCollection","features":[{"type":"Feature","id":"u_fc_poi_school.17","geometry":{"type":"Point","coordinates":[3.293206,6.609397]},"geometry_name":"geom","properties":{"state_code":"LA","source":"NMIS","name":"State Junior High School","ward_code":"LASAMO21","category":"Secondary","subtype":"Junior","management":"Public","education":"Formal","poi_type":"School","no_of_teachers":null,"no_of_students":null,"global_id":"000b98d2-eeaf-41fc-b837-35c006307a24"}},{"type":"Feature","id":"u_fc_poi_school.142","geometry":{"type":"Point","coordinates":[3.30904,6.65697]},"geometry_name":"geom","properties":{"state_code":"LA","source":"GRID","name":"Tofek College Tofek Street","ward_code":"LASIOE01","category":"Secondary","subtype":"Standard","management":"Private","education":"Formal","poi_type":"School","no_of_teachers":null,"no_of_students":null,"global_id":"00643c41-e610-4d7a-a50d-a3bd519b6d59"}},{"type":"Feature","id":"u_fc_poi_school.165","geometry":{"type":"Point","coordinates":[3.388152,6.490984]},"geometry_name":"geom","properties":{"state_code":"LA","source":"NMIS","name":"Herbert Macaulay Junior High School","ward_code":"LASLMD14","category":"Secondary","subtype":"Junior","management":"Public","education":"Formal","poi_type":"School","no_of_teachers":null,"no_of_students":null,"global_id":"006e9e91-e223-4dbf-9f63-26cf301bcbd5"}},{"type":"Feature","id":"u_fc_poi_school.201","geometry":{"type":"Point","coordinates":[3.458587,6.658644]},"geometry_name":"geom","properties":{"state_code":"LA","source":"NMIS","name":"Ikire High School","ward_code":"LASIKU16","category":"Secondary","subtype":"Senior","management":"Public","education":"Formal","poi_type":"School","no_of_teachers":null,"no_of_students":null,"global_id":"008109e1-0ce9-4eaf-99b0-ca441bbe1a31"}},{"type":"Feature","id":"u_fc_poi_school.212","geometry":{"type":"Point","coordinates":[3.399804,6.452756]},"geometry_name":"geom","properties":{"state_code":"LA","source":"NMIS","name":"Abmos Private School","ward_code":"LASLID06","category":"Secondary","subtype":"Standard","management":"Private","education":"Integrated","poi_type":"School","no_of_teachers":null,"no_of_students":null,"global_id":"008762c4-eaae-48a3-8d24-bdb9353bc76a"}},{"type":"Feature","id":"u_fc_poi_school.218","geometry":{"type":"Point","coordinates":[3.33964,6.50257]},"geometry_name":"geom","properties":{"state_code":"LA","source":"GRID","name":"St Batholomew Secondary School","ward_code":"LASSUE15","category":"Secondary","subtype":"Standard","management":"Private","education":"Formal","poi_type":"School","no_of_teachers":null,"no_of_students":null,"global_id":"00898a5f-6f45-4bc0-8c90-e6632559a219"}},{"type":"Feature","id":"u_fc_poi_school.303","geometry":{"type":"Point","coordinates":[3.48235,6.56251]},"geometry_name":"geom","properties":{"state_code":"LA","source":"GRID","name":"Bimron College","ward_code":"LASIKU13","category":"Secondary","subtype":"Standard","management":"Private","education":"Formal","poi_type":"School","no_of_teachers":null,"no_of_students":null,"global_id":"00bea8f4-ba2c-4e48-9bec-5fedff419b2f"}},{"type":"Feature","id":"u_fc_poi_school.345","geometry":{"type":"Point","coordinates":[3.50894,6.55235]},"geometry_name":"geom","properties":{"state_code":"LA","source":"GRID","name":"Stanley School","ward_code":"LASIKU01","category":"Secondary","subtype":"Standard","management":"Private","education":"Formal","poi_type":"School","no_of_teachers":null,"no_of_students":null,"global_id":"00dd9d7a-5388-4ab3-aeec-2ddbebad055b"}},{"type":"Feature","id":"u_fc_poi_school.353","geometry":{"type":"Point","coordinates":[3.26826,6.55906]},"geometry_name":"geom","properties":{"state_code":"LA","source":"GRID","name":"Deore Comprehensive College","ward_code":"LASAMO28","category":"Secondary","subtype":"Standard","management":"Private","education":"Formal","poi_type":"School","no_of_teachers":15,"no_of_students":60,"global_id":"00e1e345-2a7b-4283-b2ff-7d73437cd5e1"}},{"type":"Feature","id":"u_fc_poi_school.360","geometry":{"type":"Point","coordinates":[3.48419,6.55414]},"geometry_name":"geom","properties":{"state_code":"LA","source":"GRID","name":"Divine Favour Academy","ward_code":"LASIKU13","category":"Secondary","subtype":"Standard","management":"Private","education":"Formal","poi_type":"School","no_of_teachers":9,"no_of_students":70,"global_id":"00e44822-08d6-4786-98b0-146396d363f0"}},{"type":"Feature","id":"u_fc_poi_school.390","geometry":{"type":"Point","coordinates":[3.3916461,6.6076191]},"geometry_name":"geom","properties":{"state_code":"LA","source":"GRID","name":"Micfod School","ward_code":"LASKSE19","category":"Secondary","subtype":"Standard","management":"Private","education":"Formal","poi_type":"School","no_of_teachers":null,"no_of_students":null,"global_id":"00f6bb9c-e14b-423d-8aa3-f4565d60e869"}},{"type":"Feature","id":"u_fc_poi_school.397","geometry":{"type":"Point","coordinates":[3.387908,6.60129]},"geometry_name":"geom","properties":{"state_code":"LA","source":"NMIS","name":"Lexis College","ward_code":"LASKSE19","category":"Secondary","subtype":"Standard","management":"Private","education":"Formal","poi_type":"School","no_of_teachers":null,"no_of_students":null,"global_id":"00fa622e-8991-4799-8de1-138c9422f16c"}},{"type":"Feature","id":"u_fc_poi_school.483","geometry":{"type":"Point","coordinates":[3.5505788,6.5750698]},"geometry_name":"geom","properties":{"state_code":"LA","source":"GRID","name":"Brilliant Minds Secondary School","ward_code":"LASIKU01","category":"Secondary","subtype":"Standard","management":"Private","education":"Formal","poi_type":"School","no_of_teachers":7,"no_of_students":46,"global_id":"012cb579-187b-4ac5-a1db-26769e25e7a0"}},{"type":"Feature","id":"u_fc_poi_school.549","geometry":{"type":"Point","coordinates":[3.3257843,6.5309633]},"geometry_name":"geom","properties":{"state_code":"LA","source":"GRID","name":"Ansar Ud Deen College Isolo","ward_code":"LASOIO05","category":"Secondary","subtype":"Standard","management":"Faith Based","education":"Formal","poi_type":"School","no_of_teachers":null,"no_of_students":null,"global_id":"015a2e3e-c767-4658-8bc3-8b69b37d5eba"}},{"type":"Feature","id":"u_fc_poi_school.556","geometry":{"type":"Point","coordinates":[3.32085,6.51439]},"geometry_name":"geom","properties":{"state_code":"LA","source":"GRID","name":"Okota Secondary School","ward_code":"LASOIO13","category":"Secondary","subtype":"Standard","management":"Public","education":"Formal","poi_type":"School","no_of_teachers":null,"no_of_students":null,"global_id":"015cfb1d-24c9-4727-83fb-74978067e273"}},{"type":"Feature","id":"u_fc_poi_school.654","geometry":{"type":"Point","coordinates":[3.30874,6.54469]},"geometry_name":"geom","properties":{"state_code":"LA","source":"OSGOF","name":"Rexona School","ward_code":"LASOIO09","category":"Secondary","subtype":"Standard","management":"Public","education":"Formal","poi_type":"School","no_of_teachers":null,"no_of_students":null,"global_id":"019d27e0-42ad-4907-b2d9-d0c2dba7191f"}},{"type":"Feature","id":"u_fc_poi_school.699","geometry":{"type":"Point","coordinates":[3.144252,6.417111]},"geometry_name":"geom","properties":{"state_code":"LA","source":"NMIS","name":"Osolu Senior High School","ward_code":"LASOJO09","category":"Secondary","subtype":"Junior","management":"Public","education":"Formal","poi_type":"School","no_of_teachers":null,"no_of_students":null,"global_id":"01bf22fd-6748-45b7-857b-b23bda78e796"}},{"type":"Feature","id":"u_fc_poi_school.812","geometry":{"type":"Point","coordinates":[3.35037,6.64882]},"geometry_name":"geom","properties":{"state_code":"LA","source":"OSGOF","name":"Oke Ira Grammar School","ward_code":"LASIKA10","category":"Secondary","subtype":"Standard","management":"Public","education":"Formal","poi_type":"School","no_of_teachers":null,"no_of_students":null,"global_id":"02073b27-9b0b-44c8-a12a-be4052315407"}},{"type":"Feature","id":"u_fc_poi_school.943","geometry":{"type":"Point","coordinates":[3.36023,6.48775]},"geometry_name":"geom","properties":{"state_code":"LA","source":"OSGOF","name":"Ade Okodu Memorial College","ward_code":"LASSUE11","category":"Secondary","subtype":"Standard","management":"Public","education":"Formal","poi_type":"School","no_of_teachers":null,"no_of_students":null,"global_id":"0260437e-fdae-4839-b568-b2c99faf6570"}},{"type":"Feature","id":"u_fc_poi_school.954","geometry":{"type":"Point","coordinates":[3.24845,6.52339]},"geometry_name":"geom","properties":{"state_code":"LA","source":"GRID","name":"Bobby Bens High School","ward_code":"LASAMO01","category":"Secondary","subtype":"Standard","management":"Private","education":"Formal","poi_type":"School","no_of_teachers":null,"no_of_students":null,"global_id":"02679694-a888-4774-ac67-c3424991dce0"}},{"type":"Feature","id":"u_fc_poi_school.991","geometry":{"type":"Point","coordinates":[3.2618234,6.6705768]},"geometry_name":"geom","properties":{"state_code":"LA","source":"GRID","name":"Mafazat Comprehensive High School","ward_code":"LASAMO11","category":"Secondary","subtype":"Standard","management":"Private","education":"Formal","poi_type":"School","no_of_teachers":null,"no_of_students":null,"global_id":"0281c739-53e0-44d0-a478-eb87d0edc82b"}},{"type":"Feature","id":"u_fc_poi_school.1062","geometry":{"type":"Point","coordinates":[3.178934,6.472576]},"geometry_name":"geom","properties":{"state_code":"LA","source":"NMIS","name":"Ajangbadi Senior High School Afromedia","ward_code":"LASOJO10","category":"Secondary","subtype":"Senior","management":"Public","education":"Formal","poi_type":"School","no_of_teachers":null,"no_of_students":null,"global_id":"02b03a3a-18c3-4d13-9d7d-676a081090c1"}},{"type":"Feature","id":"u_fc_poi_school.1104","geometry":{"type":"Point","coordinates":[3.313893,6.622614]},"geometry_name":"geom","properties":{"state_code":"LA","source":"NMIS","name":"Mabecon Private Schools","ward_code":"LASAGG02","category":"Secondary","subtype":"Standard","management":"Private","education":"Formal","poi_type":"School","no_of_teachers":null,"no_of_students":null,"global_id":"02c6d401-7736-403d-a1da-cd2c1148f607"}},{"type":"Feature","id":"u_fc_poi_school.1202","geometry":{"type":"Point","coordinates":[3.283626,6.455428]},"geometry_name":"geom","properties":{"state_code":"LA","source":"NMIS","name":"Agboju Senior Secondary School","ward_code":"LASAON03","category":"Secondary","subtype":"Senior","management":"Public","education":"Formal","poi_type":"School","no_of_teachers":null,"no_of_students":null,"global_id":"02fbc607-d134-47ad-97d3-957a41034b8e"}},{"type":"Feature","id":"u_fc_poi_school.1239","geometry":{"type":"Point","coordinates":[3.2415367,6.4987215]},"geometry_name":"geom","properties":{"state_code":"LA","source":"GRID","name":"Ijedodo Junior Grammar School 1","ward_code":"LASAMO24","category":"Secondary","subtype":"Junior","management":"Public","education":"Formal","poi_type":"School","no_of_teachers":null,"no_of_students":null,"global_id":"03125bb1-342e-4d45-97f8-a380b5324d00"}},{"type":"Feature","id":"u_fc_poi_school.1288","geometry":{"type":"Point","coordinates":[3.36061,6.52304]},"geometry_name":"geom","properties":{"state_code":"LA","source":"OSGOF","name":"Aunty Wikky Schools","ward_code":"LASMUN04","category":"Secondary","subtype":"Standard","management":"Public","education":"Formal","poi_type":"School","no_of_teachers":null,"no_of_students":null,"global_id":"0337ca44-5631-407e-bb73-990e0e1e81f1"}},{"type":"Feature","id":"u_fc_poi_school.1364","geometry":{"type":"Point","coordinates":[3.68774,6.46122]},"geometry_name":"geom","properties":{"state_code":"LA","source":"GRID","name":"Future Bright School","ward_code":"LASIUI04","category":"Secondary","subtype":"Standard","management":"Private","education":"Formal","poi_type":"School","no_of_teachers":10,"no_of_students":100,"global_id":"036d8eb1-5741-4063-a4ed-0745733b9dfd"}},{"type":"Feature","id":"u_fc_poi_school.1412","geometry":{"type":"Point","coordinates":[3.4544133,6.6710683]},"geometry_name":"geom","properties":{"state_code":"LA","source":"eHA Polio","name":"Priceless Academy College","ward_code":"LASIKU16","category":"Secondary","subtype":"Standard","management":"Private","education":"Formal","poi_type":"School","no_of_teachers":null,"no_of_students":null,"global_id":"038d8593-ed9f-4b63-9c84-1ee0e20501b1"}},{"type":"Feature","id":"u_fc_poi_school.1427","geometry":{"type":"Point","coordinates":[3.4389645,6.4371529]},"geometry_name":"geom","properties":{"state_code":"LA","source":"GRID","name":"Kuramo Secondary School","ward_code":"LASEOA01","category":"Secondary","subtype":"Standard","management":"Public","education":"Formal","poi_type":"School","no_of_teachers":null,"no_of_students":null,"global_id":"03944676-c64f-420f-86c0-c4e9c499ffcf"}},{"type":"Feature","id":"u_fc_poi_school.1510","geometry":{"type":"Point","coordinates":[3.26226,6.50987]},"geometry_name":"geom","properties":{"state_code":"LA","source":"GRID","name":"Remroyal Secondary School","ward_code":"LASAMO27","category":"Secondary","subtype":"Standard","management":"Private","education":"Formal","poi_type":"School","no_of_teachers":null,"no_of_students":null,"global_id":"03c3fdc3-ba79-43dd-93e2-17a6bd5e2b63"}},{"type":"Feature","id":"u_fc_poi_school.1511","geometry":{"type":"Point","coordinates":[3.29238,6.55545]},"geometry_name":"geom","properties":{"state_code":"LA","source":"GRID","name":"First Beulahfield College","ward_code":"LASOIO10","category":"Secondary","subtype":"Standard","management":"Private","education":"Formal","poi_type":"School","no_of_teachers":null,"no_of_students":null,"global_id":"03c47de6-8103-404a-ad40-edea5405e966"}},{"type":"Feature","id":"u_fc_poi_school.1520","geometry":{"type":"Point","coordinates":[3.59081,6.57796]},"geometry_name":"geom","properties":{"state_code":"LA","source":"GRID","name":"Luwasa High School","ward_code":"LASIKU25","category":"Secondary","subtype":"Standard","management":"Public","education":"Formal","poi_type":"School","no_of_teachers":null,"no_of_students":null,"global_id":"03c85d08-612a-4d52-b3d9-8f403c657d2c"}},{"type":"Feature","id":"u_fc_poi_school.1536","geometry":{"type":"Point","coordinates":[3.37808,6.633356]},"geometry_name":"geom","properties":{"state_code":"LA","source":"NMIS","name":"Daily Light College","ward_code":"LASKSE12","category":"Secondary","subtype":"Standard","management":"Private","education":"Formal","poi_type":"School","no_of_teachers":null,"no_of_students":null,"global_id":"03d297f5-421e-41e3-a401-4547486cd1e6"}},{"type":"Feature","id":"u_fc_poi_school.1609","geometry":{"type":"Point","coordinates":[3.280065,6.668343]},"geometry_name":"geom","properties":{"state_code":"LA","source":"NMIS","name":"Ijaye Housing Junior Grammar School","ward_code":"LASIOE08","category":"Secondary","subtype":"Standard","management":"Public","education":"Formal","poi_type":"School","no_of_teachers":null,"no_of_students":null,"global_id":"040268f5-6909-4a86-bd7c-fe864a017ede"}},{"type":"Feature","id":"u_fc_poi_school.1631","geometry":{"type":"Point","coordinates":[3.3289681,6.6267898]},"geometry_name":"geom","properties":{"state_code":"LA","source":"GRID","name":"Yewa Junior High School","ward_code":"LASAGG06","category":"Secondary","subtype":"Junior","management":"Public","education":"Formal","poi_type":"School","no_of_teachers":null,"no_of_students":null,"global_id":"040d6ca6-ead2-4138-903a-9d9802142175"}},{"type":"Feature","id":"u_fc_poi_school.1692","geometry":{"type":"Point","coordinates":[3.997949,6.59932]},"geometry_name":"geom","properties":{"state_code":"LA","source":"NMIS","name":"Alaro Community Junior High School Epe","ward_code":"LASEPE11","category":"Secondary","subtype":"Junior","management":"Public","education":"Formal","poi_type":"School","no_of_teachers":null,"no_of_students":null,"global_id":"0429a2f2-248f-4bf1-ae67-f38504dd5101"}},{"type":"Feature","id":"u_fc_poi_school.1804","geometry":{"type":"Point","coordinates":[3.22594,6.51336]},"geometry_name":"geom","properties":{"state_code":"LA","source":"GRID","name":"Blueoak College","ward_code":"LASAMO24","category":"Secondary","subtype":"Standard","management":"Private","education":"Formal","poi_type":"School","no_of_teachers":null,"no_of_students":null,"global_id":"04764475-dbbf-4f9a-a1db-82fd7c6337bd"}},{"type":"Feature","id":"u_fc_poi_school.1824","geometry":{"type":"Point","coordinates":[3.32319,6.65728]},"geometry_name":"geom","properties":{"state_code":"LA","source":"OSGOF","name":"Annah Comfort High School","ward_code":"LASIOE02","category":"Secondary","subtype":"Senior","management":"Public","education":"Formal","poi_type":"School","no_of_teachers":null,"no_of_students":null,"global_id":"04850483-c669-44df-9e60-c32257873488"}},{"type":"Feature","id":"u_fc_poi_school.1894","geometry":{"type":"Point","coordinates":[3.873028,6.441951]},"geometry_name":"geom","properties":{"state_code":"LA","source":"NMIS","name":"Magbon Alade Senior Grammar School","ward_code":"LASIUI09","category":"Secondary","subtype":"Standard","management":"Public","education":"Formal","poi_type":"School","no_of_teachers":null,"no_of_students":null,"global_id":"04aba6d5-b14c-4805-b57e-bdbe44ac8778"}},{"type":"Feature","id":"u_fc_poi_school.1907","geometry":{"type":"Point","coordinates":[3.2987188,6.5444405]},"geometry_name":"geom","properties":{"state_code":"LA","source":"GRID","name":"Hybrid College","ward_code":"LASOIO10","category":"Secondary","subtype":"Standard","management":"Private","education":"Formal","poi_type":"School","no_of_teachers":null,"no_of_students":null,"global_id":"04b1b7d1-4d1b-4d99-9d64-3ee9b3851dde"}},{"type":"Feature","id":"u_fc_poi_school.2242","geometry":{"type":"Point","coordinates":[3.32332,6.66462]},"geometry_name":"geom","properties":{"state_code":"LA","source":"OSGOF","name":"Bolad College","ward_code":"LASIOE12","category":"Secondary","subtype":"Standard","management":"Public","education":"Formal","poi_type":"School","no_of_teachers":null,"no_of_students":null,"global_id":"057c59ad-bfb8-45e0-a0c7-7c56939fd447"}},{"type":"Feature","id":"u_fc_poi_school.2296","geometry":{"type":"Point","coordinates":[3.269002,6.673837]},"geometry_name":"geom","properties":{"state_code":"LA","source":"NMIS","name":"Tomia Community Senior Secondary School","ward_code":"LASAMO11","category":"Secondary","subtype":"Senior","management":"Public","education":"Formal","poi_type":"School","no_of_teachers":null,"no_of_students":null,"global_id":"05a267a4-c3ba-4e11-9450-7bf758df717b"}},{"type":"Feature","id":"u_fc_poi_school.2371","geometry":{"type":"Point","coordinates":[3.8707025,6.6364952]},"geometry_name":"geom","properties":{"state_code":"LA","source":"NMIS","name":"Government Senior College","ward_code":"LASEPE07","category":"Secondary","subtype":"Senior","management":"Public","education":"Formal","poi_type":"School","no_of_teachers":null,"no_of_students":null,"global_id":"05d51461-d286-45c3-83c4-422ba90e11fe"}},{"type":"Feature","id":"u_fc_poi_school.2412","geometry":{"type":"Point","coordinates":[2.8882587,6.4318573]},"geometry_name":"geom","properties":{"state_code":"LA","source":"GRID","name":"St Micheals Alabi Stars School","ward_code":"LASBDY03","category":"Secondary","subtype":"Standard","management":"Private","education":"Formal","poi_type":"School","no_of_teachers":70311115,"no_of_students":230,"global_id":"05f0a73e-3b46-463a-9b66-9a51acdd7322"}},{"type":"Feature","id":"u_fc_poi_school.2420","geometry":{"type":"Point","coordinates":[3.29282,6.63277]},"geometry_name":"geom","properties":{"state_code":"LA","source":"GRID","name":"Bema Comprehensive High School","ward_code":"LASAMO31","category":"Secondary","subtype":"Standard","management":"Private","education":"Formal","poi_type":"School","no_of_teachers":10,"no_of_students":115,"global_id":"05f32042-6919-44ed-a975-a7d0ef5bfb56"}},{"type":"Feature","id":"u_fc_poi_school.2460","geometry":{"type":"Point","coordinates":[3.3247062,6.549023]},"geometry_name":"geom","properties":{"state_code":"LA","source":"GRID","name":"Ajao Estate Junior Grammar School","ward_code":"LASOIO04","category":"Secondary","subtype":"Junior","management":"Public","education":"Formal","poi_type":"School","no_of_teachers":null,"no_of_students":null,"global_id":"06076966-80fc-4e87-9c8d-f31dcb23d71e"}},{"type":"Feature","id":"u_fc_poi_school.2522","geometry":{"type":"Point","coordinates":[3.249187,6.553189]},"geometry_name":"geom","properties":{"state_code":"LA","source":"NMIS","name":"Igando Community Senior High School Igando","ward_code":"LASAMO25","category":"Secondary","subtype":"Senior","management":"Public","education":"Formal","poi_type":"School","no_of_teachers":null,"no_of_students":null,"global_id":"062947d6-0857-4104-a7aa-f786aa03f475"}},{"type":"Feature","id":"u_fc_poi_school.2538","geometry":{"type":"Point","coordinates":[3.351882,6.475398]},"geometry_name":"geom","properties":{"state_code":"LA","source":"NMIS","name":"Starlink International College","ward_code":"LASAPA12","category":"Secondary","subtype":"Standard","management":"Private","education":"Formal","poi_type":"School","no_of_teachers":null,"no_of_students":null,"global_id":"0630ccf7-3816-4306-baf9-420e7edf9744"}},{"type":"Feature","id":"u_fc_poi_school.2695","geometry":{"type":"Point","coordinates":[3.349625,6.50114]},"geometry_name":"geom","properties":{"state_code":"LA","source":"NMIS","name":"Somerset College","ward_code":"LASSUE01","category":"Secondary","subtype":"Standard","management":"Private","education":"Formal","poi_type":"School","no_of_teachers":null,"no_of_students":null,"global_id":"0690420c-1a16-4e89-9c08-3ad7075b1a66"}},{"type":"Feature","id":"u_fc_poi_school.2853","geometry":{"type":"Point","coordinates":[3.39311,6.50213]},"geometry_name":"geom","properties":{"state_code":"LA","source":"NMIS","name":"Saint Francis Junior Grammar School","ward_code":"LASLMD04","category":"Secondary","subtype":"Junior","management":"Public","education":"Formal","poi_type":"School","no_of_teachers":null,"no_of_students":null,"global_id":"06ee7ef8-1165-46bb-a4b9-dc51f71705a4"}},{"type":"Feature","id":"u_fc_poi_school.2991","geometry":{"type":"Point","coordinates":[3.3323757,6.4761312]},"geometry_name":"geom","properties":{"state_code":"LA","source":"GRID","name":"Expert Academy","ward_code":"LASSUE09","category":"Secondary","subtype":"Standard","management":"Private","education":"Formal","poi_type":"School","no_of_teachers":null,"no_of_students":null,"global_id":"074faa85-5eb5-46ab-a612-8917206a189c"}},{"type":"Feature","id":"u_fc_poi_school.3038","geometry":{"type":"Point","coordinates":[3.18258,6.46672]},"geometry_name":"geom","properties":{"state_code":"LA","source":"GRID","name":"Jolat Model Collets","ward_code":"LASOJO10","category":"Secondary","subtype":"Standard","management":"Private","education":"Formal","poi_type":"School","no_of_teachers":13,"no_of_students":161,"global_id":"076b2cac-7c76-49d9-a873-76b3d9df9955"}},{"type":"Feature","id":"u_fc_poi_school.3220","geometry":{"type":"Point","coordinates":[3.338031,6.526244]},"geometry_name":"geom","properties":{"state_code":"LA","source":"NMIS","name":"Community Junior Secondary School","ward_code":"LASMUN01","category":"Secondary","subtype":"Junior","management":"Public","education":"Formal","poi_type":"School","no_of_teachers":null,"no_of_students":null,"global_id":"07f4541d-141c-4487-9b8e-b10478a540cc"}},{"type":"Feature","id":"u_fc_poi_school.3292","geometry":{"type":"Point","coordinates":[3.3536759,6.4872245]},"geometry_name":"geom","properties":{"state_code":"LA","source":"NMIS","name":"Eric Moore Senior High School","ward_code":"LASSUE11","category":"Secondary","subtype":"Standard","management":"Public","education":"Formal","poi_type":"School","no_of_teachers":null,"no_of_students":null,"global_id":"081a87da-f937-4f5a-bb18-42ccfbf8525e"}},{"type":"Feature","id":"u_fc_poi_school.3339","geometry":{"type":"Point","coordinates":[3.30724,6.65276]},"geometry_name":"geom","properties":{"state_code":"LA","source":"GRID","name":"Grains Royale International School","ward_code":"LASIOE01","category":"Secondary","subtype":"Standard","management":"Private","education":"Formal","poi_type":"School","no_of_teachers":null,"no_of_students":null,"global_id":"083b3bcd-f5ad-4fcf-8400-742842c6740c"}},{"type":"Feature","id":"u_fc_poi_school.3345","geometry":{"type":"Point","coordinates":[3.624049,6.659072]},"geometry_name":"geom","properties":{"state_code":"LA","source":"NMIS","name":"Isiwu Senior Grammar School","ward_code":"LASIKU07","category":"Secondary","subtype":"Senior","management":"Public","education":"Formal","poi_type":"School","no_of_teachers":null,"no_of_students":null,"global_id":"083f1937-a3cd-4fe9-b49e-6dc321b4206e"}},{"type":"Feature","id":"u_fc_poi_school.3370","geometry":{"type":"Point","coordinates":[3.3955729,6.6160784]},"geometry_name":"geom","properties":{"state_code":"LA","source":"GRID","name":"Bolorunduro Secondary School","ward_code":"LASKSE21","category":"Secondary","subtype":"Standard","management":"Private","education":"Formal","poi_type":"School","no_of_teachers":null,"no_of_students":null,"global_id":"084e654c-7f5c-4e33-8987-6b85e05cda3c"}},{"type":"Feature","id":"u_fc_poi_school.3378","geometry":{"type":"Point","coordinates":[3.341938,6.439421]},"geometry_name":"geom","properties":{"state_code":"LA","source":"NMIS","name":"Creek Senior Secondary School","ward_code":"LASATO15","category":"Secondary","subtype":"Senior","management":"Public","education":"Formal","poi_type":"School","no_of_teachers":null,"no_of_students":null,"global_id":"08509519-02a4-4d98-a925-9199b986fbbd"}},{"type":"Feature","id":"u_fc_poi_school.3380","geometry":{"type":"Point","coordinates":[3.37395,6.527608]},"geometry_name":"geom","properties":{"state_code":"LA","source":"NMIS","name":"Morocco Comprehensive High School","ward_code":"LASSMU08","category":"Secondary","subtype":"Junior","management":"Public","education":"Formal","poi_type":"School","no_of_teachers":null,"no_of_students":null,"global_id":"08513c5d-b122-4936-965c-719a4b42dcca"}},{"type":"Feature","id":"u_fc_poi_school.3615","geometry":{"type":"Point","coordinates":[3.3067552,6.5275583]},"geometry_name":"geom","properties":{"state_code":"LA","source":"GRID","name":"Marybene School","ward_code":"LASOIO17","category":"Secondary","subtype":"Standard","management":"Private","education":"Formal","poi_type":"School","no_of_teachers":null,"no_of_students":null,"global_id":"08f2d1e0-1d12-4fa8-9ab6-338f49a1cc24"}},{"type":"Feature","id":"u_fc_poi_school.3639","geometry":{"type":"Point","coordinates":[3.54307,6.56431]},"geometry_name":"geom","properties":{"state_code":"LA","source":"GRID","name":"The Iconic College School","ward_code":"LASIKU19","category":"Secondary","subtype":"Standard","management":"Private","education":"Formal","poi_type":"School","no_of_teachers":null,"no_of_students":null,"global_id":"08feaa0d-63ee-403f-9eb8-4313e8b9df65"}},{"type":"Feature","id":"u_fc_poi_school.3640","geometry":{"type":"Point","coordinates":[3.238763,6.5811149]},"geometry_name":"geom","properties":{"state_code":"LA","source":"GRID","name":"Marg Phils College","ward_code":"LASAMO15","category":"Secondary","subtype":"Standard","management":"Private","education":"Formal","poi_type":"School","no_of_teachers":null,"no_of_students":null,"global_id":"08fed24c-9cb3-4b75-baab-10b5ad97f958"}},{"type":"Feature","id":"u_fc_poi_school.3739","geometry":{"type":"Point","coordinates":[3.908165,6.439767]},"geometry_name":"geom","properties":{"state_code":"LA","source":"NMIS","name":"Orimedu Community Senior Secondary School","ward_code":"LASIUI08","category":"Secondary","subtype":"Standard","management":"Public","education":"Formal","poi_type":"School","no_of_teachers":null,"no_of_students":null,"global_id":"09450804-6ba9-4572-8868-867253aac05e"}},{"type":"Feature","id":"u_fc_poi_school.3772","geometry":{"type":"Point","coordinates":[3.237362,6.557648]},"geometry_name":"geom","properties":{"state_code":"LA","source":"NMIS","name":"Jon Bitrice College","ward_code":"LASAMO23","category":"Secondary","subtype":"Standard","management":"Private","education":"Formal","poi_type":"School","no_of_teachers":null,"no_of_students":null,"global_id":"094ecf98-c41e-4919-9ae5-82a30938f042"}},{"type":"Feature","id":"u_fc_poi_school.3818","geometry":{"type":"Point","coordinates":[3.7053,6.48114]},"geometry_name":"geom","properties":{"state_code":"LA","source":"GRID","name":"Abcell Secondary School","ward_code":"LASIUI04","category":"Secondary","subtype":"Standard","management":"Private","education":"Formal","poi_type":"School","no_of_teachers":5,"no_of_students":62,"global_id":"096e9603-e534-41b7-ad9a-55271a1cbf69"}},{"type":"Feature","id":"u_fc_poi_school.3885","geometry":{"type":"Point","coordinates":[3.36198,6.52245]},"geometry_name":"geom","properties":{"state_code":"LA","source":"OSGOF","name":"Aiylabowo School","ward_code":"LASMUN05","category":"Secondary","subtype":"Standard","management":"Public","education":"Formal","poi_type":"School","no_of_teachers":null,"no_of_students":null,"global_id":"0999b9b6-3b83-4aed-a6c1-9421e2ed6bfc"}},{"type":"Feature","id":"u_fc_poi_school.3895","geometry":{"type":"Point","coordinates":[3.34139,6.50926]},"geometry_name":"geom","properties":{"state_code":"LA","source":"OSGOF","name":"Solid Rock Children School","ward_code":"LASSUE08","category":"Secondary","subtype":"Standard","management":"Public","education":"Formal","poi_type":"School","no_of_teachers":null,"no_of_students":null,"global_id":"099e8e6c-534c-45fc-91e0-a8e1774e32e3"}},{"type":"Feature","id":"u_fc_poi_school.3917","geometry":{"type":"Point","coordinates":[3.3445249,6.4379153]},"geometry_name":"geom","properties":{"state_code":"LA","source":"GRID","name":"Bola Ige Millennium Secondary School","ward_code":"LASATO15","category":"Secondary","subtype":"Standard","management":"Public","education":"Formal","poi_type":"School","no_of_teachers":null,"no_of_students":null,"global_id":"09aa72b3-f5fa-4c97-a7a8-e25dd37ccf29"}},{"type":"Feature","id":"u_fc_poi_school.3938","geometry":{"type":"Point","coordinates":[3.21967,6.44552]},"geometry_name":"geom","properties":{"state_code":"LA","source":"OSGOF","name":"Pauliver College","ward_code":"LASOJO08","category":"Secondary","subtype":"Standard","management":"Public","education":"Formal","poi_type":"School","no_of_teachers":null,"no_of_students":null,"global_id":"09b6e089-51f8-4334-8e7b-95ce06e82c84"}},{"type":"Feature","id":"u_fc_poi_school.4121","geometry":{"type":"Point","coordinates":[3.362877,6.516426]},"geometry_name":"geom","properties":{"state_code":"LA","source":"NMIS","name":"Lagos Anglican Girls School","ward_code":"LASSUE04","category":"Secondary","subtype":"Standard","management":"Faith Based","education":"Integrated","poi_type":"School","no_of_teachers":null,"no_of_students":null,"global_id":"0a2258e7-f3c4-4b79-9da0-10b5e94c3d91"}},{"type":"Feature","id":"u_fc_poi_school.4154","geometry":{"type":"Point","coordinates":[3.54441,6.56369]},"geometry_name":"geom","properties":{"state_code":"LA","source":"GRID","name":"Semi Faith Living Spring School","ward_code":"LASIKU19","category":"Secondary","subtype":"Standard","management":"Private","education":"Formal","poi_type":"School","no_of_teachers":4,"no_of_students":4,"global_id":"0a3495a2-3f82-4e37-996f-aa9b328f1d5d"}},{"type":"Feature","id":"u_fc_poi_school.4214","geometry":{"type":"Point","coordinates":[3.384218,6.486571]},"geometry_name":"geom","properties":{"state_code":"LA","source":"NMIS","name":"Bridge College","ward_code":"LASLMD09","category":"Secondary","subtype":"Standard","management":"Private","education":"Formal","poi_type":"School","no_of_teachers":null,"no_of_students":null,"global_id":"0a5aaf60-6958-412b-9887-83640b736fe1"}},{"type":"Feature","id":"u_fc_poi_school.4228","geometry":{"type":"Point","coordinates":[3.3274508,6.5167576]},"geometry_name":"geom","properties":{"state_code":"LA","source":"GRID","name":"Emerald College","ward_code":"LASOIO13","category":"Secondary","subtype":"Standard","management":"Private","education":"Formal","poi_type":"School","no_of_teachers":null,"no_of_students":null,"global_id":"0a61e5f1-8525-4943-bb04-ce9981a3cdf9"}},{"type":"Feature","id":"u_fc_poi_school.4335","geometry":{"type":"Point","coordinates":[3.21781,6.48891]},"geometry_name":"geom","properties":{"state_code":"LA","source":"GRID","name":"Command Day Secondary School","ward_code":"LASOJO08","category":"Secondary","subtype":"Standard","management":"Public","education":"Formal","poi_type":"School","no_of_teachers":20,"no_of_students":450,"global_id":"0ab0db7c-18db-4fb3-80c6-59ab5ccd16e7"}},{"type":"Feature","id":"u_fc_poi_school.4476","geometry":{"type":"Point","coordinates":[3.28065,6.53605]},"geometry_name":"geom","properties":{"state_code":"LA","source":"OSGOF","name":"Staduia Divine College","ward_code":"LASAMO18","category":"Secondary","subtype":"Standard","management":"Public","education":"Formal","poi_type":"School","no_of_teachers":null,"no_of_students":null,"global_id":"0b0ba3b1-b561-41cd-8116-35e452efad6b"}},{"type":"Feature","id":"u_fc_poi_school.4541","geometry":{"type":"Point","coordinates":[3.50601,6.64911]},"geometry_name":"geom","properties":{"state_code":"LA","source":"GRID","name":"Leolite College","ward_code":"LASIKU06","category":"Secondary","subtype":"Standard","management":"Private","education":"Formal","poi_type":"School","no_of_teachers":null,"no_of_students":null,"global_id":"0b3499c3-972d-452e-920b-9b16e5df9ba4"}},{"type":"Feature","id":"u_fc_poi_school.4683","geometry":{"type":"Point","coordinates":[3.383612,6.482945]},"geometry_name":"geom","properties":{"state_code":"LA","source":"NMIS","name":"Home Science Association Vocational Education Institute","ward_code":"LASLMD09","category":"Secondary","subtype":"Aggregate","management":"Public","education":"Formal","poi_type":"School","no_of_teachers":null,"no_of_students":null,"global_id":"0b92f7c4-4fe0-45ac-a0b0-30a52817f6fa"}},{"type":"Feature","id":"u_fc_poi_school.4687","geometry":{"type":"Point","coordinates":[3.32779,6.54848]},"geometry_name":"geom","properties":{"state_code":"LA","source":"OSGOF","name":"Marvelle School","ward_code":"LASOIO04","category":"Secondary","subtype":"Standard","management":"Public","education":"Formal","poi_type":"School","no_of_teachers":null,"no_of_students":null,"global_id":"0b942ac1-416d-4102-b9c9-d0bc839cdc19"}},{"type":"Feature","id":"u_fc_poi_school.4836","geometry":{"type":"Point","coordinates":[3.4800685,6.6408386]},"geometry_name":"geom","properties":{"state_code":"LA","source":"GRID","name":"I M S Angle Wood Academy","ward_code":"LASIKU28","category":"Secondary","subtype":"Standard","management":"Private","education":"Formal","poi_type":"School","no_of_teachers":null,"no_of_students":null,"global_id":"0bee6d4f-961e-430d-9971-5da48263d964"}},{"type":"Feature","id":"u_fc_poi_school.4876","geometry":{"type":"Point","coordinates":[3.3055476,6.65714]},"geometry_name":"geom","properties":{"state_code":"LA","source":"GRID","name":"Holy Blessing College Arowolo Street","ward_code":"LASIOE01","category":"Secondary","subtype":"Standard","management":"Private","education":"Formal","poi_type":"School","no_of_teachers":null,"no_of_students":null,"global_id":"0c08c918-c74d-43fa-9f27-fef4e843883d"}},{"type":"Feature","id":"u_fc_poi_school.4907","geometry":{"type":"Point","coordinates":[3.30813,6.6336]},"geometry_name":"geom","properties":{"state_code":"LA","source":"GRID","name":"Christ School","ward_code":"LASAGG08","category":"Secondary","subtype":"Standard","management":"Private","education":"Formal","poi_type":"School","no_of_teachers":50,"no_of_students":10,"global_id":"0c1e6585-067d-4499-a0a1-f2666362c65b"}},{"type":"Feature","id":"u_fc_poi_school.5045","geometry":{"type":"Point","coordinates":[3.333122,6.6403026]},"geometry_name":"geom","properties":{"state_code":"LA","source":"GRID","name":"Highland College","ward_code":"LASIOE05","category":"Secondary","subtype":"Standard","management":"Private","education":"Formal","poi_type":"School","no_of_teachers":null,"no_of_students":null,"global_id":"0c6e153d-7f24-488c-b737-54a9662faf82"}},{"type":"Feature","id":"u_fc_poi_school.5127","geometry":{"type":"Point","coordinates":[3.50939,6.638557]},"geometry_name":"geom","properties":{"state_code":"LA","source":"NMIS","name":"Ikorodu Junior High School","ward_code":"LASIKU06","category":"Secondary","subtype":"Standard","management":"Public","education":"Formal","poi_type":"School","no_of_teachers":null,"no_of_students":null,"global_id":"0ca6a8f6-0754-40a9-9952-bd7c014c6f03"}},{"type":"Feature","id":"u_fc_poi_school.5129","geometry":{"type":"Point","coordinates":[3.5884,6.57615]},"geometry_name":"geom","properties":{"state_code":"LA","source":"OSGOF","name":"High Lead College","ward_code":"LASIKU25","category":"Secondary","subtype":"Standard","management":"Public","education":"Formal","poi_type":"School","no_of_teachers":null,"no_of_students":null,"global_id":"0ca754ff-282a-4bd7-b147-707be532456b"}},{"type":"Feature","id":"u_fc_poi_school.5131","geometry":{"type":"Point","coordinates":[3.2547107,6.6470953]},"geometry_name":"geom","properties":{"state_code":"LA","source":"GRID","name":"Emmycord School","ward_code":"LASAMO07","category":"Secondary","subtype":"Standard","management":"Private","education":"Formal","poi_type":"School","no_of_teachers":null,"no_of_students":null,"global_id":"0ca7af61-784e-45c3-af5d-3ba9567828a1"}},{"type":"Feature","id":"u_fc_poi_school.5146","geometry":{"type":"Point","coordinates":[3.24911,6.53427]},"geometry_name":"geom","properties":{"state_code":"LA","source":"OSGOF","name":"Starbreed College School","ward_code":"LASAMO01","category":"Secondary","subtype":"Standard","management":"Public","education":"Formal","poi_type":"School","no_of_teachers":null,"no_of_students":null,"global_id":"0cb13477-0ca5-4f20-8eba-e6b55557ecca"}},{"type":"Feature","id":"u_fc_poi_school.5265","geometry":{"type":"Point","coordinates":[3.343127,6.439968]},"geometry_name":"geom","properties":{"state_code":"LA","source":"NMIS","name":"Olodi Apapa Senior Secondary School","ward_code":"LASATO15","category":"Secondary","subtype":"Senior","management":"Public","education":"Formal","poi_type":"School","no_of_teachers":null,"no_of_students":null,"global_id":"0cfc2fee-2725-4786-9365-70107abcb650"}},{"type":"Feature","id":"u_fc_poi_school.5295","geometry":{"type":"Point","coordinates":[3.309347,6.636636]},"geometry_name":"geom","properties":{"state_code":"LA","source":"NMIS","name":"Fountain of Wisdom Schools","ward_code":"LASAGG08","category":"Secondary","subtype":"Standard","management":"Private","education":"Formal","poi_type":"School","no_of_teachers":null,"no_of_students":null,"global_id":"0d0d726a-3a24-48e8-83b7-695747da99dd"}},{"type":"Feature","id":"u_fc_poi_school.5537","geometry":{"type":"Point","coordinates":[3.2989263,6.6746927]},"geometry_name":"geom","properties":{"state_code":"LA","source":"GRID","name":"Reima Royal Secondary School","ward_code":"LASIOE07","category":"Secondary","subtype":"Standard","management":"Private","education":"Formal","poi_type":"School","no_of_teachers":null,"no_of_students":null,"global_id":"0dabd859-02d4-4b8a-b2cc-8d0e09896152"}},{"type":"Feature","id":"u_fc_poi_school.5551","geometry":{"type":"Point","coordinates":[3.6701669,6.6553689]},"geometry_name":"geom","properties":{"state_code":"LA","source":"GRID","name":"Ansarudeen Junior Secondary School Imota","ward_code":"LASIKU14","category":"Secondary","subtype":"Junior","management":"Public","education":"Formal","poi_type":"School","no_of_teachers":31,"no_of_students":1062,"global_id":"0db25280-642a-46bc-95a3-922e94a27b53"}},{"type":"Feature","id":"u_fc_poi_school.5667","geometry":{"type":"Point","coordinates":[3.3448868,6.5537935]},"geometry_name":"geom","properties":{"state_code":"LA","source":"NMIS","name":"Unity Junior High School","ward_code":"LASOIO01","category":"Secondary","subtype":"Junior","management":"Public","education":"Formal","poi_type":"School","no_of_teachers":null,"no_of_students":null,"global_id":"0df5b9b0-ea54-458a-af92-6cfed6721c69"}},{"type":"Feature","id":"u_fc_poi_school.5743","geometry":{"type":"Point","coordinates":[3.34372,6.56621]},"geometry_name":"geom","properties":{"state_code":"LA","source":"OSGOF","name":"Rickdale School","ward_code":"LASOIO16","category":"Secondary","subtype":"Standard","management":"Public","education":"Formal","poi_type":"School","no_of_teachers":null,"no_of_students":null,"global_id":"0e2150da-af6c-40ed-9c66-26c18c99930a"}},{"type":"Feature","id":"u_fc_poi_school.5761","geometry":{"type":"Point","coordinates":[3.379552,6.508185]},"geometry_name":"geom","properties":{"state_code":"LA","source":"NMIS","name":"Herbert Macaulay Girls Senior High Secondary","ward_code":"LASLMD15","category":"Secondary","subtype":"Senior","management":"Public","education":"Formal","poi_type":"School","no_of_teachers":null,"no_of_students":null,"global_id":"0e2a8487-e7cb-4112-b985-651d21e75d68"}},{"type":"Feature","id":"u_fc_poi_school.5774","geometry":{"type":"Point","coordinates":[3.3901115,6.5970823]},"geometry_name":"geom","properties":{"state_code":"LA","source":"GRID","name":"Triple Crown College","ward_code":"LASKSE08","category":"Secondary","subtype":"Standard","management":"Private","education":"Formal","poi_type":"School","no_of_teachers":null,"no_of_students":null,"global_id":"0e3296e3-012d-4058-a329-0807e64826b3"}},{"type":"Feature","id":"u_fc_poi_school.5775","geometry":{"type":"Point","coordinates":[2.92912,6.49643]},"geometry_name":"geom","properties":{"state_code":"LA","source":"GRID","name":"Thogli Community Grammar School","ward_code":"LASBDY14","category":"Secondary","subtype":"Standard","management":"Public","education":"Formal","poi_type":"School","no_of_teachers":6,"no_of_students":85,"global_id":"0e33562c-6ea3-48c9-8b50-2f96d51f8aa7"}},{"type":"Feature","id":"u_fc_poi_school.5776","geometry":{"type":"Point","coordinates":[3.9288716,6.4382368]},"geometry_name":"geom","properties":{"state_code":"LA","source":"NMIS","name":"Community Senior Secondary School Akodo","ward_code":"LASIUI08","category":"Secondary","subtype":"Standard","management":"Public","education":"Formal","poi_type":"School","no_of_teachers":null,"no_of_students":null,"global_id":"0e3369b8-2d7a-47af-b9b0-5c1a1b0057c1"}},{"type":"Feature","id":"u_fc_poi_school.5808","geometry":{"type":"Point","coordinates":[3.2236975,6.575961]},"geometry_name":"geom","properties":{"state_code":"LA","source":"GRID","name":"Olorunshola Community Junior High School","ward_code":"LASAMO15","category":"Secondary","subtype":"Junior","management":"Public","education":"Formal","poi_type":"School","no_of_teachers":null,"no_of_students":null,"global_id":"0e4ac16b-7aa7-4dd0-87d1-adfd01d497a7"}},{"type":"Feature","id":"u_fc_poi_school.5853","geometry":{"type":"Point","coordinates":[3.389471,6.5268446]},"geometry_name":"geom","properties":{"state_code":"LA","source":"OSGOF","name":"Bellina School","ward_code":"LASSMU02","category":"Secondary","subtype":"Standard","management":"Public","education":"Formal","poi_type":"School","no_of_teachers":null,"no_of_students":null,"global_id":"0e667587-e17a-475b-8896-85b5d497b768"}},{"type":"Feature","id":"u_fc_poi_school.5858","geometry":{"type":"Point","coordinates":[3.3203904,6.6133571]},"geometry_name":"geom","properties":{"state_code":"LA","source":"GRID","name":"Mojiu Kenku Memorial High School","ward_code":"LASAGG05","category":"Secondary","subtype":"Standard","management":"Public","education":"Formal","poi_type":"School","no_of_teachers":null,"no_of_students":null,"global_id":"0e66fb56-a073-44f2-8782-c2ebf0616f31"}},{"type":"Feature","id":"u_fc_poi_school.5936","geometry":{"type":"Point","coordinates":[3.2294066,6.4476899]},"geometry_name":"geom","properties":{"state_code":"LA","source":"GRID","name":"Pauliven College Missionary School Eziama Tedi","ward_code":"LASOJO08","category":"Secondary","subtype":"Standard","management":"Private","education":"Formal","poi_type":"School","no_of_teachers":1,"no_of_students":1,"global_id":"0e8f9303-bcb0-45d0-93e4-3453edc0fe70"}},{"type":"Feature","id":"u_fc_poi_school.6022","geometry":{"type":"Point","coordinates":[3.302217,6.588365]},"geometry_name":"geom","properties":{"state_code":"LA","source":"NMIS","name":"Sasa Community Senior High School","ward_code":"LASAMO30","category":"Secondary","subtype":"Senior","management":"Public","education":"Formal","poi_type":"School","no_of_teachers":null,"no_of_students":null,"global_id":"0ecc943a-cead-43a4-8007-f141d6c46c44"}},{"type":"Feature","id":"u_fc_poi_school.6074","geometry":{"type":"Point","coordinates":[3.34876,6.61237]},"geometry_name":"geom","properties":{"state_code":"LA","source":"OSGOF","name":"Adeniyi Jones School","ward_code":"LASIKA07","category":"Secondary","subtype":"Standard","management":"Public","education":"Formal","poi_type":"School","no_of_teachers":null,"no_of_students":null,"global_id":"0ef3a4af-f84f-4b22-bf79-c8c4e0b12835"}},{"type":"Feature","id":"u_fc_poi_school.6096","geometry":{"type":"Point","coordinates":[3.48466,6.63648]},"geometry_name":"geom","properties":{"state_code":"LA","source":"GRID","name":"Blue Diamond Crest","ward_code":"LASIKU28","category":"Secondary","subtype":"Standard","management":"Private","education":"Formal","poi_type":"School","no_of_teachers":null,"no_of_students":null,"global_id":"0f053d6f-07d5-4e78-9fd9-6b079a72ee9f"}},{"type":"Feature","id":"u_fc_poi_school.6153","geometry":{"type":"Point","coordinates":[3.21112,6.55466]},"geometry_name":"geom","properties":{"state_code":"LA","source":"GRID","name":"Glory Access College","ward_code":"LASAMO17","category":"Secondary","subtype":"Standard","management":"Private","education":"Formal","poi_type":"School","no_of_teachers":null,"no_of_students":null,"global_id":"0f236541-320f-4d84-801e-09b4eba1a5dd"}},{"type":"Feature","id":"u_fc_poi_school.6209","geometry":{"type":"Point","coordinates":[3.36584,6.52861]},"geometry_name":"geom","properties":{"state_code":"LA","source":"OSGOF","name":"Golden Abbey School","ward_code":"LASMUN10","category":"Secondary","subtype":"Standard","management":"Public","education":"Formal","poi_type":"School","no_of_teachers":null,"no_of_students":null,"global_id":"0f404bee-d3a5-41bd-92d0-772354d77427"}},{"type":"Feature","id":"u_fc_poi_school.6377","geometry":{"type":"Point","coordinates":[3.3227365,6.524014]},"geometry_name":"geom","properties":{"state_code":"LA","source":"NMIS","name":"Haimurie College","ward_code":"LASOIO14","category":"Secondary","subtype":"Standard","management":"Private","education":"Formal","poi_type":"School","no_of_teachers":null,"no_of_students":null,"global_id":"0fbb59cd-e7b2-4927-86e9-e3407aecbaf0"}},{"type":"Feature","id":"u_fc_poi_school.6433","geometry":{"type":"Point","coordinates":[3.3317361,6.6358005]},"geometry_name":"geom","properties":{"state_code":"LA","source":"GRID","name":"Success Seed College Ifako","ward_code":"LASIOE10","category":"Secondary","subtype":"Standard","management":"Private","education":"Formal","poi_type":"School","no_of_teachers":null,"no_of_students":null,"global_id":"0fd892b2-eefd-409c-9ad1-f80f32a3a4cc"}},{"type":"Feature","id":"u_fc_poi_school.6449","geometry":{"type":"Point","coordinates":[3.25952,6.43687]},"geometry_name":"geom","properties":{"state_code":"LA","source":"GRID","name":"Groombridge College","ward_code":"LASAON01","category":"Secondary","subtype":"Standard","management":"Private","education":"Formal","poi_type":"School","no_of_teachers":null,"no_of_students":null,"global_id":"0fdee785-7acd-4be5-8d37-2dff0c0973ad"}},{"type":"Feature","id":"u_fc_poi_school.6507","geometry":{"type":"Point","coordinates":[3.308142,6.449131]},"geometry_name":"geom","properties":{"state_code":"LA","source":"NMIS","name":"Tender Crowns Eminent International","ward_code":"LASAON11","category":"Secondary","subtype":"Aggregate","management":"Private","education":"Formal","poi_type":"School","no_of_teachers":null,"no_of_students":null,"global_id":"100e2da1-dd61-42e9-a3f8-6c6d3d7ff64c"}},{"type":"Feature","id":"u_fc_poi_school.6510","geometry":{"type":"Point","coordinates":[3.458964,6.657639]},"geometry_name":"geom","properties":{"state_code":"LA","source":"NMIS","name":"Isawo Comprehensive Senior High School","ward_code":"LASIKU16","category":"Secondary","subtype":"Senior","management":"Public","education":"Formal","poi_type":"School","no_of_teachers":null,"no_of_students":null,"global_id":"100f1a7d-d1bf-46f7-8801-0a7e26968723"}},{"type":"Feature","id":"u_fc_poi_school.6699","geometry":{"type":"Point","coordinates":[3.343597,6.437975]},"geometry_name":"geom","properties":{"state_code":"LA","source":"NMIS","name":"Ojora Memorial Junior Secondary School","ward_code":"LASATO15","category":"Secondary","subtype":"Junior","management":"Public","education":"Formal","poi_type":"School","no_of_teachers":null,"no_of_students":null,"global_id":"10945221-3691-4f11-ace0-69c21f67d7d0"}},{"type":"Feature","id":"u_fc_poi_school.6745","geometry":{"type":"Point","coordinates":[3.330684,6.659712]},"geometry_name":"geom","properties":{"state_code":"LA","source":"NMIS","name":"Iju Junior Grammar School","ward_code":"LASIOE12","category":"Secondary","subtype":"Junior","management":"Public","education":"Formal","poi_type":"School","no_of_teachers":null,"no_of_students":null,"global_id":"10b2c32c-923e-4011-a703-9227ebe013a1"}},{"type":"Feature","id":"u_fc_poi_school.6845","geometry":{"type":"Point","coordinates":[2.907033,6.433411]},"geometry_name":"geom","properties":{"state_code":"LA","source":"NMIS","name":"Eljousey Santa Maria College","ward_code":"LASBDY18","category":"Secondary","subtype":"Standard","management":"Private","education":"Formal","poi_type":"School","no_of_teachers":null,"no_of_students":null,"global_id":"10f57017-38ac-437c-9264-e1a18d3e0719"}},{"type":"Feature","id":"u_fc_poi_school.6896","geometry":{"type":"Point","coordinates":[3.27362,6.56831]},"geometry_name":"geom","properties":{"state_code":"LA","source":"OSGOF","name":"Pavic International Secondary School","ward_code":"LASAMO28","category":"Secondary","subtype":"Standard","management":"Public","education":"Formal","poi_type":"School","no_of_teachers":null,"no_of_students":null,"global_id":"111ce830-5eb5-4868-a60e-f7e3a989ab07"}},{"type":"Feature","id":"u_fc_poi_school.6904","geometry":{"type":"Point","coordinates":[3.40308,6.45522]},"geometry_name":"geom","properties":{"state_code":"LA","source":"NMIS","name":"Dolphin Senior Secondary School","ward_code":"LASLID12","category":"Secondary","subtype":"Senior","management":"Public","education":"Formal","poi_type":"School","no_of_teachers":null,"no_of_students":null,"global_id":"1121b2b7-55ac-4ecf-8099-627a4ca14494"}},{"type":"Feature","id":"u_fc_poi_school.6960","geometry":{"type":"Point","coordinates":[3.30086,6.54369]},"geometry_name":"geom","properties":{"state_code":"LA","source":"GRID","name":"Omatese Memorial College","ward_code":"LASOIO09","category":"Secondary","subtype":"Standard","management":"Private","education":"Formal","poi_type":"School","no_of_teachers":null,"no_of_students":null,"global_id":"114a09bf-e3ea-4477-b72c-1d74f06cac22"}},{"type":"Feature","id":"u_fc_poi_school.6968","geometry":{"type":"Point","coordinates":[3.34478,6.60158]},"geometry_name":"geom","properties":{"state_code":"LA","source":"OSGOF","name":"Sogunle School","ward_code":"LASIKA03","category":"Secondary","subtype":"Standard","management":"Public","education":"Formal","poi_type":"School","no_of_teachers":null,"no_of_students":null,"global_id":"114c4801-d469-42f7-84c3-e4ec326af7c4"}},{"type":"Feature","id":"u_fc_poi_school.6970","geometry":{"type":"Point","coordinates":[3.3957468,6.4540834]},"geometry_name":"geom","properties":{"state_code":"LA","source":"NMIS","name":"Qatob Private High School","ward_code":"LASLID16","category":"Secondary","subtype":"Standard","management":"Private","education":"Formal","poi_type":"School","no_of_teachers":null,"no_of_students":null,"global_id":"1151d644-bd82-4c61-96cc-6f66fa2f5cd3"}},{"type":"Feature","id":"u_fc_poi_school.7093","geometry":{"type":"Point","coordinates":[3.012787,6.416702]},"geometry_name":"geom","properties":{"state_code":"LA","source":"NMIS","name":"Iworo Ajido Senior Model College","ward_code":"LASBDY15","category":"Secondary","subtype":"Senior","management":"Public","education":"Formal","poi_type":"School","no_of_teachers":null,"no_of_students":null,"global_id":"11915a55-8a85-4650-90f6-a9f9db56d771"}},{"type":"Feature","id":"u_fc_poi_school.7212","geometry":{"type":"Point","coordinates":[3.372368,6.615367]},"geometry_name":"geom","properties":{"state_code":"LA","source":"NMIS","name":"Tim Bekky","ward_code":"LASKSE21","category":"Secondary","subtype":"Standard","management":"Private","education":"Formal","poi_type":"School","no_of_teachers":null,"no_of_students":null,"global_id":"11df0e6c-0aee-4b13-80dc-5e51aee4714a"}},{"type":"Feature","id":"u_fc_poi_school.7242","geometry":{"type":"Point","coordinates":[3.3540737,6.5558849]},"geometry_name":"geom","properties":{"state_code":"LA","source":"NMIS","name":"Ilupeju Senior Grammar School","ward_code":"LASMUN09","category":"Secondary","subtype":"Senior","management":"Public","education":"Formal","poi_type":"School","no_of_teachers":null,"no_of_students":null,"global_id":"11ed2b6b-c7b1-4eb1-9394-cb8f2ef9b6b0"}},{"type":"Feature","id":"u_fc_poi_school.7266","geometry":{"type":"Point","coordinates":[3.301881,6.623911]},"geometry_name":"geom","properties":{"state_code":"LA","source":"NMIS","name":"Government Senior College","ward_code":"LASAGG04","category":"Secondary","subtype":"Senior","management":"Public","education":"Formal","poi_type":"School","no_of_teachers":null,"no_of_students":null,"global_id":"11fdf0d9-513d-44a4-9d57-cd962773a506"}},{"type":"Feature","id":"u_fc_poi_school.7304","geometry":{"type":"Point","coordinates":[4.09706,6.422381]},"geometry_name":"geom","properties":{"state_code":"LA","source":"NMIS","name":"Community Senior High School Lekki","ward_code":"LASIUI06","category":"Secondary","subtype":"Senior","management":"Public","education":"Formal","poi_type":"School","no_of_teachers":null,"no_of_students":null,"global_id":"1214fffc-6dc1-41b6-8521-9053efff8ade"}},{"type":"Feature","id":"u_fc_poi_school.7327","geometry":{"type":"Point","coordinates":[3.326616,6.532985]},"geometry_name":"geom","properties":{"state_code":"LA","source":"NMIS","name":"Isolo Senior High School","ward_code":"LASOIO05","category":"Secondary","subtype":"Senior","management":"Public","education":"Formal","poi_type":"School","no_of_teachers":null,"no_of_students":null,"global_id":"12245a69-c04b-4fdb-a06e-87754dc6312d"}},{"type":"Feature","id":"u_fc_poi_school.7380","geometry":{"type":"Point","coordinates":[2.7614573,6.4202072]},"geometry_name":"geom","properties":{"state_code":"LA","source":"NMIS","name":"Kankon Senior Secondary School Badagry","ward_code":"LASBDY20","category":"Secondary","subtype":"Senior","management":"Public","education":"Formal","poi_type":"School","no_of_teachers":null,"no_of_students":null,"global_id":"123f5387-36cc-41ce-938f-7a4e8d2aebf9"}},{"type":"Feature","id":"u_fc_poi_school.7452","geometry":{"type":"Point","coordinates":[3.2573593,6.4979919]},"geometry_name":"geom","properties":{"state_code":"LA","source":"GRID","name":"Hopeful Private School 2","ward_code":"LASAMO27","category":"Secondary","subtype":"Standard","management":"Private","education":"Formal","poi_type":"School","no_of_teachers":null,"no_of_students":null,"global_id":"1271028f-0f9b-416f-a3f0-ac1981807adc"}},{"type":"Feature","id":"u_fc_poi_school.7497","geometry":{"type":"Point","coordinates":[3.3077328,6.6286936]},"geometry_name":"geom","properties":{"state_code":"LA","source":"NMIS","name":"Lagooz Schools","ward_code":"LASAGG04","category":"Secondary","subtype":"Aggregate","management":"Private","education":"Formal","poi_type":"School","no_of_teachers":null,"no_of_students":null,"global_id":"128acdae-829d-4aa7-bd56-cea378b8c722"}},{"type":"Feature","id":"u_fc_poi_school.7498","geometry":{"type":"Point","coordinates":[3.3495163,6.6360361]},"geometry_name":"geom","properties":{"state_code":"LA","source":"GRID","name":"Oak International College","ward_code":"LASIKA01","category":"Secondary","subtype":"Standard","management":"Private","education":"Formal","poi_type":"School","no_of_teachers":null,"no_of_students":null,"global_id":"128aefe3-1ab2-4ce0-a6bd-3221dfc133ff"}},{"type":"Feature","id":"u_fc_poi_school.7508","geometry":{"type":"Point","coordinates":[4.0151171,6.6788226]},"geometry_name":"geom","properties":{"state_code":"LA","source":"GRID","name":"Igbo Oye Senior High School Epe","ward_code":"LASEPE10","category":"Secondary","subtype":"Senior","management":"Public","education":"Formal","poi_type":"School","no_of_teachers":14,"no_of_students":95,"global_id":"128e6499-20ad-4e33-9bc8-8d42538ed33d"}},{"type":"Feature","id":"u_fc_poi_school.7545","geometry":{"type":"Point","coordinates":[3.632116,6.473049]},"geometry_name":"geom","properties":{"state_code":"LA","source":"NMIS","name":"Adacas Comprehensive School","ward_code":"LASEOA18","category":"Secondary","subtype":"Aggregate","management":"Private","education":"Formal","poi_type":"School","no_of_teachers":null,"no_of_students":null,"global_id":"12a669ca-1ac2-4371-8d67-94fd32c18c8f"}},{"type":"Feature","id":"u_fc_poi_school.7659","geometry":{"type":"Point","coordinates":[3.38558,6.50459]},"geometry_name":"geom","properties":{"state_code":"LA","source":"GRID","name":"Liham School","ward_code":"LASLMD04","category":"Secondary","subtype":"Standard","management":"Private","education":"Formal","poi_type":"School","no_of_teachers":56,"no_of_students":300,"global_id":"12e6301c-9aab-46c2-bd04-35d9fb6f5393"}},{"type":"Feature","id":"u_fc_poi_school.7661","geometry":{"type":"Point","coordinates":[3.24441,6.5203]},"geometry_name":"geom","properties":{"state_code":"LA","source":"GRID","name":"Holy Family School","ward_code":"LASAMO01","category":"Secondary","subtype":"Standard","management":"Private","education":"Formal","poi_type":"School","no_of_teachers":null,"no_of_students":null,"global_id":"12e6da22-5ad7-40a6-8572-498f873ed9c2"}},{"type":"Feature","id":"u_fc_poi_school.7744","geometry":{"type":"Point","coordinates":[3.98342,6.58381]},"geometry_name":"geom","properties":{"state_code":"LA","source":"OSGOF","name":"Tesmoh International School","ward_code":"LASEPE19","category":"Secondary","subtype":"Standard","management":"Public","education":"Formal","poi_type":"School","no_of_teachers":null,"no_of_students":null,"global_id":"131d4673-587b-4ae0-aa71-e8983c1ab3a9"}},{"type":"Feature","id":"u_fc_poi_school.7781","geometry":{"type":"Point","coordinates":[3.31405,6.53711]},"geometry_name":"geom","properties":{"state_code":"LA","source":"OSGOF","name":"Samtie Hope School","ward_code":"LASOIO12","category":"Secondary","subtype":"Standard","management":"Public","education":"Formal","poi_type":"School","no_of_teachers":null,"no_of_students":null,"global_id":"13363cc9-f316-4341-956a-0f0cfb9921b0"}},{"type":"Feature","id":"u_fc_poi_school.7909","geometry":{"type":"Point","coordinates":[2.95353,6.50168]},"geometry_name":"geom","properties":{"state_code":"LA","source":"GRID","name":"Ikoga Grammar School","ward_code":"LASBDY14","category":"Secondary","subtype":"Standard","management":"Public","education":"Formal","poi_type":"School","no_of_teachers":null,"no_of_students":null,"global_id":"1380bc25-cd8d-4de0-aa51-c28bb1d54235"}},{"type":"Feature","id":"u_fc_poi_school.8110","geometry":{"type":"Point","coordinates":[3.3818238,6.4579196]},"geometry_name":"geom","properties":{"state_code":"LA","source":"NMIS","name":"Olowogbowo Methodist Junior Secondary School","ward_code":"LASLID15","category":"Secondary","subtype":"Junior","management":"Public","education":"Formal","poi_type":"School","no_of_teachers":null,"no_of_students":null,"global_id":"13f80fcc-9f06-4301-8d1d-e87b0e214bdb"}},{"type":"Feature","id":"u_fc_poi_school.8176","geometry":{"type":"Point","coordinates":[3.4246931,6.4626895]},"geometry_name":"geom","properties":{"state_code":"LA","source":"GRID","name":"Government Junior College Ikoyi","ward_code":"LASEOA11","category":"Secondary","subtype":"Junior","management":"Public","education":"Formal","poi_type":"School","no_of_teachers":23,"no_of_students":204,"global_id":"14272a79-1d43-4f7c-b2b1-aa8fc848c7a3"}},{"type":"Feature","id":"u_fc_poi_school.8221","geometry":{"type":"Point","coordinates":[3.332788,6.469092]},"geometry_name":"geom","properties":{"state_code":"LA","source":"NMIS","name":"Festlad International Schools","ward_code":"LASATO06","category":"Secondary","subtype":"Aggregate","management":"Private","education":"Formal","poi_type":"School","no_of_teachers":null,"no_of_students":null,"global_id":"14409580-c259-4c51-acad-722bc2bc0bba"}},{"type":"Feature","id":"u_fc_poi_school.8355","geometry":{"type":"Point","coordinates":[3.1394371,6.4804389]},"geometry_name":"geom","properties":{"state_code":"LA","source":"GRID","name":"Tosvvi Precious Secondary School","ward_code":"LASOJO13","category":"Secondary","subtype":"Standard","management":"Private","education":"Formal","poi_type":"School","no_of_teachers":null,"no_of_students":null,"global_id":"148c5be4-e256-4b51-9bae-d192c375faf4"}},{"type":"Feature","id":"u_fc_poi_school.8452","geometry":{"type":"Point","coordinates":[3.32051,6.525293]},"geometry_name":"geom","properties":{"state_code":"LA","source":"NMIS","name":"Metropolitan Junior College Isolo","ward_code":"LASOIO14","category":"Secondary","subtype":"Junior","management":"Public","education":"Formal","poi_type":"School","no_of_teachers":null,"no_of_students":null,"global_id":"14c3bdc2-727b-4006-9a33-372ad8dd2001"}},{"type":"Feature","id":"u_fc_poi_school.8590","geometry":{"type":"Point","coordinates":[3.36303,6.55113]},"geometry_name":"geom","properties":{"state_code":"LA","source":"OSGOF","name":"Basil International School","ward_code":"LASMUN09","category":"Secondary","subtype":"Standard","management":"Public","education":"Formal","poi_type":"School","no_of_teachers":null,"no_of_students":null,"global_id":"15182e13-2add-45df-862f-bf5e196bad6d"}},{"type":"Feature","id":"u_fc_poi_school.8707","geometry":{"type":"Point","coordinates":[3.5835,6.66966]},"geometry_name":"geom","properties":{"state_code":"LA","source":"GRID","name":"Safeab Intelectual College","ward_code":"LASIKU12","category":"Secondary","subtype":"Standard","management":"Private","education":"Formal","poi_type":"School","no_of_teachers":null,"no_of_students":null,"global_id":"156da4e0-8d09-4618-83f6-7bf7ff77ad54"}},{"type":"Feature","id":"u_fc_poi_school.8715","geometry":{"type":"Point","coordinates":[3.295616,6.678223]},"geometry_name":"geom","properties":{"state_code":"LA","source":"NMIS","name":"Ebenezer Comprehensive High School","ward_code":"LASIOE07","category":"Secondary","subtype":"Aggregate","management":"Private","education":"Formal","poi_type":"School","no_of_teachers":null,"no_of_students":null,"global_id":"15734ff2-f4cc-4fda-ae6a-1f65ca6ba380"}},{"type":"Feature","id":"u_fc_poi_school.8734","geometry":{"type":"Point","coordinates":[3.3809954,6.5075583]},"geometry_name":"geom","properties":{"state_code":"LA","source":"GRID","name":"Cifman College","ward_code":"LASLMD15","category":"Secondary","subtype":"Standard","management":"Private","education":"Formal","poi_type":"School","no_of_teachers":25,"no_of_students":128,"global_id":"157fc0d8-731b-406c-8c91-1be5f4c791e0"}},{"type":"Feature","id":"u_fc_poi_school.8759","geometry":{"type":"Point","coordinates":[3.3813843,6.4596554]},"geometry_name":"geom","properties":{"state_code":"LA","source":"GRID","name":"Elegbata High School","ward_code":"LASLID15","category":"Secondary","subtype":"Standard","management":"Public","education":"Formal","poi_type":"School","no_of_teachers":null,"no_of_students":null,"global_id":"158b8d0c-ae19-4f5e-929e-81f0c7057de7"}},{"type":"Feature","id":"u_fc_poi_school.8781","geometry":{"type":"Point","coordinates":[3.322753,6.64286]},"geometry_name":"geom","properties":{"state_code":"LA","source":"GRID","name":"Ifako International Secondary School","ward_code":"LASIOE02","category":"Secondary","subtype":"Standard","management":"Public","education":"Formal","poi_type":"School","no_of_teachers":null,"no_of_students":null,"global_id":"1596b6ad-36bb-43bd-bd1c-1341c7db8050"}},{"type":"Feature","id":"u_fc_poi_school.8799","geometry":{"type":"Point","coordinates":[3.0846973,6.4914311]},"geometry_name":"geom","properties":{"state_code":"LA","source":"GRID","name":"Joy Dominion Secondary School","ward_code":"LASBDY08","category":"Secondary","subtype":"Standard","management":"Private","education":"Formal","poi_type":"School","no_of_teachers":null,"no_of_students":null,"global_id":"15a423ea-7a08-4fbf-a2b3-145f1d224715"}},{"type":"Feature","id":"u_fc_poi_school.8825","geometry":{"type":"Point","coordinates":[3.27297,6.60979]},"geometry_name":"geom","properties":{"state_code":"LA","source":"GRID","name":"Fesbach College","ward_code":"LASAMO29","category":"Secondary","subtype":"Standard","management":"Private","education":"Formal","poi_type":"School","no_of_teachers":null,"no_of_students":null,"global_id":"15b58e03-0e02-40b3-aeda-fc0158cd052b"}},{"type":"Feature","id":"u_fc_poi_school.8859","geometry":{"type":"Point","coordinates":[3.340665,6.491603]},"geometry_name":"geom","properties":{"state_code":"LA","source":"NMIS","name":"Aguda Junior Grammar School","ward_code":"LASSUE13","category":"Secondary","subtype":"Junior","management":"Public","education":"Formal","poi_type":"School","no_of_teachers":null,"no_of_students":null,"global_id":"15c8c5e8-0eab-474e-b684-f4540210b33d"}},{"type":"Feature","id":"u_fc_poi_school.8876","geometry":{"type":"Point","coordinates":[3.808113,6.4733888]},"geometry_name":"geom","properties":{"state_code":"LA","source":"GRID","name":"Rock Field International School Igando Oloja","ward_code":"LASIUI02","category":"Secondary","subtype":"Standard","management":"Private","education":"Formal","poi_type":"School","no_of_teachers":null,"no_of_students":null,"global_id":"15d1b1fe-79ba-4ab2-8c72-3cead9b3dea2"}},{"type":"Feature","id":"u_fc_poi_school.8945","geometry":{"type":"Point","coordinates":[3.26419,6.51205]},"geometry_name":"geom","properties":{"state_code":"LA","source":"GRID","name":"Eagles Norms High School","ward_code":"LASAMO27","category":"Secondary","subtype":"Standard","management":"Private","education":"Formal","poi_type":"School","no_of_teachers":null,"no_of_students":null,"global_id":"15fdaeb0-1868-410c-a4b8-f0068e56c566"}},{"type":"Feature","id":"u_fc_poi_school.8968","geometry":{"type":"Point","coordinates":[3.359464,6.48645]},"geometry_name":"geom","properties":{"state_code":"LA","source":"NMIS","name":"Surulere Junior Secondary School","ward_code":"LASSUE11","category":"Secondary","subtype":"Junior","management":"Public","education":"Formal","poi_type":"School","no_of_teachers":null,"no_of_students":null,"global_id":"160a976a-927f-4c0f-862a-e5ab60d5a7b9"}},{"type":"Feature","id":"u_fc_poi_school.9020","geometry":{"type":"Point","coordinates":[3.352553,6.564364]},"geometry_name":"geom","properties":{"state_code":"LA","source":"NMIS","name":"Army Children Junior High School","ward_code":"LASIKA12","category":"Secondary","subtype":"Standard","management":"Public","education":"Formal","poi_type":"School","no_of_teachers":null,"no_of_students":null,"global_id":"161fdc03-d543-4da7-9f23-70a18134f55a"}},{"type":"Feature","id":"u_fc_poi_school.9040","geometry":{"type":"Point","coordinates":[2.8075994,6.427995]},"geometry_name":"geom","properties":{"state_code":"LA","source":"GRID","name":"Dikor Comprehensive School","ward_code":"LASBDY06","category":"Secondary","subtype":"Standard","management":"Private","education":"Formal","poi_type":"School","no_of_teachers":20,"no_of_students":600,"global_id":"162a0cb1-ca19-43c9-bfec-d0fc19ecf618"}},{"type":"Feature","id":"u_fc_poi_school.9208","geometry":{"type":"Point","coordinates":[3.341018,6.475534]},"geometry_name":"geom","properties":{"state_code":"LA","source":"NMIS","name":"Iganmu Junior High School","ward_code":"LASAPA03","category":"Secondary","subtype":"Junior","management":"Public","education":"Formal","poi_type":"School","no_of_teachers":null,"no_of_students":null,"global_id":"168eac52-d0a1-4f44-aa79-8fb99f80646d"}},{"type":"Feature","id":"u_fc_poi_school.9280","geometry":{"type":"Point","coordinates":[3.330684,6.490434]},"geometry_name":"geom","properties":{"state_code":"LA","source":"NMIS","name":"Johnbright Comprehensive School","ward_code":"LASSUE03","category":"Secondary","subtype":"Standard","management":"Private","education":"Formal","poi_type":"School","no_of_teachers":null,"no_of_students":null,"global_id":"16b33be4-ab20-414c-9630-ba1ff6b9d075"}},{"type":"Feature","id":"u_fc_poi_school.9331","geometry":{"type":"Point","coordinates":[3.633186,6.473302]},"geometry_name":"geom","properties":{"state_code":"LA","source":"NMIS","name":"Lily Child School","ward_code":"LASEOA18","category":"Secondary","subtype":"Aggregate","management":"Private","education":"Formal","poi_type":"School","no_of_teachers":null,"no_of_students":null,"global_id":"16d989dd-3fa8-4990-9651-52f38c08290f"}},{"type":"Feature","id":"u_fc_poi_school.9357","geometry":{"type":"Point","coordinates":[3.988333,6.649207]},"geometry_name":"geom","properties":{"state_code":"LA","source":"NMIS","name":"St Patrick Senior Secondary School Eredo","ward_code":"LASEPE15","category":"Secondary","subtype":"Senior","management":"Public","education":"Formal","poi_type":"School","no_of_teachers":null,"no_of_students":null,"global_id":"16e6dfc1-8796-4f7d-90f5-a11b21b902c4"}},{"type":"Feature","id":"u_fc_poi_school.9451","geometry":{"type":"Point","coordinates":[3.33434,6.51071]},"geometry_name":"geom","properties":{"state_code":"LA","source":"OSGOF","name":"Silverbeth School","ward_code":"LASMUN14","category":"Secondary","subtype":"Standard","management":"Public","education":"Formal","poi_type":"School","no_of_teachers":null,"no_of_students":null,"global_id":"171cf55c-1a0e-4ac5-b51b-4e1574b357b2"}},{"type":"Feature","id":"u_fc_poi_school.9607","geometry":{"type":"Point","coordinates":[3.38729,6.509418]},"geometry_name":"geom","properties":{"state_code":"LA","source":"NMIS","name":"Mountain Top Secondary School","ward_code":"LASLMD18","category":"Secondary","subtype":"Standard","management":"Private","education":"Formal","poi_type":"School","no_of_teachers":null,"no_of_students":null,"global_id":"177add1e-96b8-4c7a-abeb-62e7f0a165ad"}},{"type":"Feature","id":"u_fc_poi_school.9643","geometry":{"type":"Point","coordinates":[3.5136,6.63749]},"geometry_name":"geom","properties":{"state_code":"LA","source":"OSGOF","name":"Lspgb Model School","ward_code":"LASIKU06","category":"Secondary","subtype":"Standard","management":"Public","education":"Formal","poi_type":"School","no_of_teachers":null,"no_of_students":null,"global_id":"178c914d-0a2b-4382-aa57-a5f8fd2ae356"}},{"type":"Feature","id":"u_fc_poi_school.9657","geometry":{"type":"Point","coordinates":[3.97075,6.58526]},"geometry_name":"geom","properties":{"state_code":"LA","source":"GRID","name":"Vivid Mind College","ward_code":"LASEPE04","category":"Secondary","subtype":"Standard","management":"Private","education":"Formal","poi_type":"School","no_of_teachers":null,"no_of_students":null,"global_id":"17942ad4-5029-4b7d-b713-00ee31c73499"}},{"type":"Feature","id":"u_fc_poi_school.9896","geometry":{"type":"Point","coordinates":[3.23331,6.52167]},"geometry_name":"geom","properties":{"state_code":"LA","source":"GRID","name":"Pillars College","ward_code":"LASAMO01","category":"Secondary","subtype":"Standard","management":"Private","education":"Formal","poi_type":"School","no_of_teachers":null,"no_of_students":null,"global_id":"18207207-e6fc-45bb-95f8-cf8914b5013a"}},{"type":"Feature","id":"u_fc_poi_school.9908","geometry":{"type":"Point","coordinates":[3.772869,6.645309]},"geometry_name":"geom","properties":{"state_code":"LA","source":"NMIS","name":"Ajebo Junior High School","ward_code":"LASEPE17","category":"Secondary","subtype":"Junior","management":"Public","education":"Formal","poi_type":"School","no_of_teachers":null,"no_of_students":null,"global_id":"1829d838-975a-4211-85b6-e6de5eff9e14"}},{"type":"Feature","id":"u_fc_poi_school.9983","geometry":{"type":"Point","coordinates":[4.2703248,6.3994127]},"geometry_name":"geom","properties":{"state_code":"LA","source":"GRID","name":"Igbogun High School","ward_code":"LASEPE16","category":"Secondary","subtype":"Standard","management":"Public Private","education":"Formal","poi_type":"School","no_of_teachers":null,"no_of_students":null,"global_id":"185aab5f-2354-4e03-ad86-ebd5643da9e9"}},{"type":"Feature","id":"u_fc_poi_school.10050","geometry":{"type":"Point","coordinates":[3.3636447,6.4483748]},"geometry_name":"geom","properties":{"state_code":"LA","source":"GRID","name":"Sacred Heart College Apapa","ward_code":"LASAPA05","category":"Secondary","subtype":"Standard","management":"Private","education":"Formal","poi_type":"School","no_of_teachers":null,"no_of_students":null,"global_id":"18849414-e929-415f-bfed-d6fa6a84ad45"}},{"type":"Feature","id":"u_fc_poi_school.10062","geometry":{"type":"Point","coordinates":[3.2631841,6.5477289]},"geometry_name":"geom","properties":{"state_code":"LA","source":"GRID","name":"Topdun International Concept","ward_code":"LASAMO25","category":"Secondary","subtype":"Standard","management":"Private","education":"Formal","poi_type":"School","no_of_teachers":null,"no_of_students":null,"global_id":"188a0871-5792-4553-bbe3-d8cbd3f1a32f"}},{"type":"Feature","id":"u_fc_poi_school.10073","geometry":{"type":"Point","coordinates":[3.46558,6.44543]},"geometry_name":"geom","properties":{"state_code":"LA","source":"GRID","name":"Italian International School","ward_code":"LASEOA10","category":"Secondary","subtype":"Standard","management":"Private","education":"Formal","poi_type":"School","no_of_teachers":null,"no_of_students":null,"global_id":"18904bf3-70b0-4cda-90ea-1238e68309c9"}},{"type":"Feature","id":"u_fc_poi_school.10081","geometry":{"type":"Point","coordinates":[3.59318,6.65628]},"geometry_name":"geom","properties":{"state_code":"LA","source":"GRID","name":"First Mission International School","ward_code":"LASIKU04","category":"Secondary","subtype":"Standard","management":"Private","education":"Formal","poi_type":"School","no_of_teachers":4,"no_of_students":28,"global_id":"1894d549-b204-41ba-b901-d7263e3c84e2"}},{"type":"Feature","id":"u_fc_poi_school.10163","geometry":{"type":"Point","coordinates":[3.3276735,6.6445979]},"geometry_name":"geom","properties":{"state_code":"LA","source":"GRID","name":"African Church Model College","ward_code":"LASIOE05","category":"Secondary","subtype":"Standard","management":"Private","education":"Formal","poi_type":"School","no_of_teachers":null,"no_of_students":null,"global_id":"18c0538b-7f30-405f-9c42-965510615e3a"}},{"type":"Feature","id":"u_fc_poi_school.10223","geometry":{"type":"Point","coordinates":[3.29141,6.55598]},"geometry_name":"geom","properties":{"state_code":"LA","source":"GRID","name":"Queenmaris College","ward_code":"LASOIO10","category":"Secondary","subtype":"Standard","management":"Private","education":"Formal","poi_type":"School","no_of_teachers":null,"no_of_students":null,"global_id":"18e30103-341a-4bb7-a3b9-06b094bd7aca"}},{"type":"Feature","id":"u_fc_poi_school.10227","geometry":{"type":"Point","coordinates":[3.27616,6.61114]},"geometry_name":"geom","properties":{"state_code":"LA","source":"OSGOF","name":"White House International School","ward_code":"LASAMO29","category":"Secondary","subtype":"Standard","management":"Public","education":"Formal","poi_type":"School","no_of_teachers":null,"no_of_students":null,"global_id":"18e45209-80e6-41ba-bd8f-7b59d2108d5d"}},{"type":"Feature","id":"u_fc_poi_school.10246","geometry":{"type":"Point","coordinates":[3.379233,6.507934]},"geometry_name":"geom","properties":{"state_code":"LA","source":"NMIS","name":"Birrel Avenue Senior High School","ward_code":"LASLMD15","category":"Secondary","subtype":"Senior","management":"Public","education":"Formal","poi_type":"School","no_of_teachers":null,"no_of_students":null,"global_id":"18f46618-76c9-4016-85c2-2111e8ee1773"}},{"type":"Feature","id":"u_fc_poi_school.10293","geometry":{"type":"Point","coordinates":[3.31312,6.66594]},"geometry_name":"geom","properties":{"state_code":"LA","source":"GRID","name":"Supreme Heights College","ward_code":"LASIOE14","category":"Secondary","subtype":"Standard","management":"Private","education":"Formal","poi_type":"School","no_of_teachers":null,"no_of_students":null,"global_id":"19104560-6667-48d0-b77b-846c40fba1dc"}},{"type":"Feature","id":"u_fc_poi_school.10327","geometry":{"type":"Point","coordinates":[3.3972176,6.5544976]},"geometry_name":"geom","properties":{"state_code":"LA","source":"GRID","name":"Taiwo Secondary School","ward_code":"LASKSE17","category":"Secondary","subtype":"Standard","management":"Private","education":"Formal","poi_type":"School","no_of_teachers":null,"no_of_students":null,"global_id":"19238e25-7ba4-423e-84e7-622711de8a9b"}},{"type":"Feature","id":"u_fc_poi_school.10701","geometry":{"type":"Point","coordinates":[3.27594,6.50992]},"geometry_name":"geom","properties":{"state_code":"LA","source":"GRID","name":"Hero Land School","ward_code":"LASAMO27","category":"Secondary","subtype":"Standard","management":"Private","education":"Formal","poi_type":"School","no_of_teachers":null,"no_of_students":null,"global_id":"1a029eb0-d979-4e08-9556-122ab6d62e78"}},{"type":"Feature","id":"u_fc_poi_school.10747","geometry":{"type":"Point","coordinates":[3.34126,6.47812]},"geometry_name":"geom","properties":{"state_code":"LA","source":"OSGOF","name":"Compass Tutorial College","ward_code":"LASSUE07","category":"Secondary","subtype":"Standard","management":"Public","education":"Formal","poi_type":"School","no_of_teachers":null,"no_of_students":null,"global_id":"1a1cf560-bb1a-49c6-85b8-5472c670d502"}},{"type":"Feature","id":"u_fc_poi_school.10981","geometry":{"type":"Point","coordinates":[3.35317,6.5994]},"geometry_name":"geom","properties":{"state_code":"LA","source":"GRID","name":"D Ivy College","ward_code":"LASIKA14","category":"Secondary","subtype":"Standard","management":"Private","education":"Formal","poi_type":"School","no_of_teachers":null,"no_of_students":null,"global_id":"1ab40c37-d2de-4ddc-9047-47f35b573c0f"}},{"type":"Feature","id":"u_fc_poi_school.11138","geometry":{"type":"Point","coordinates":[3.18948,6.46362]},"geometry_name":"geom","properties":{"state_code":"LA","source":"GRID","name":"Right Time Academy","ward_code":"LASOJO11","category":"Secondary","subtype":"Standard","management":"Private Faith Based","education":"Formal","poi_type":"School","no_of_teachers":null,"no_of_students":null,"global_id":"1b14bf4b-d896-4ec5-ada5-9d00c26e8d92"}},{"type":"Feature","id":"u_fc_poi_school.11350","geometry":{"type":"Point","coordinates":[3.14789,6.466181]},"geometry_name":"geom","properties":{"state_code":"LA","source":"NMIS","name":"Kings Way College","ward_code":"LASOJO07","category":"Secondary","subtype":"Standard","management":"Private","education":"Formal","poi_type":"School","no_of_teachers":null,"no_of_students":null,"global_id":"1b8f16ea-11a5-46d1-bec6-5b68c0ed3131"}},{"type":"Feature","id":"u_fc_poi_school.11397","geometry":{"type":"Point","coordinates":[3.371792,6.485987]},"geometry_name":"geom","properties":{"state_code":"LA","source":"NMIS","name":"Ijero Girls Junior High School","ward_code":"LASLMD06","category":"Secondary","subtype":"Junior","management":"Public","education":"Formal","poi_type":"School","no_of_teachers":null,"no_of_students":null,"global_id":"1ba8701d-0a28-4594-971c-a31fa8eb4711"}},{"type":"Feature","id":"u_fc_poi_school.11434","geometry":{"type":"Point","coordinates":[2.898038,6.420407]},"geometry_name":"geom","properties":{"state_code":"LA","source":"NMIS","name":"Cornel Holy Child Schools","ward_code":"LASBDY01","category":"Secondary","subtype":"Standard","management":"Private","education":"Formal","poi_type":"School","no_of_teachers":null,"no_of_students":null,"global_id":"1bbf9646-eda6-4559-a669-01e2d696d84e"}},{"type":"Feature","id":"u_fc_poi_school.11567","geometry":{"type":"Point","coordinates":[3.281058,6.632339]},"geometry_name":"geom","properties":{"state_code":"LA","source":"NMIS","name":"Ifesowapo Aboru Junior Secondary School","ward_code":"LASAMO31","category":"Secondary","subtype":"Junior","management":"Public","education":"Formal","poi_type":"School","no_of_teachers":null,"no_of_students":null,"global_id":"1c1a2312-de7b-4c4c-ad9e-913d59511eb9"}},{"type":"Feature","id":"u_fc_poi_school.11612","geometry":{"type":"Point","coordinates":[3.3854687,6.5638968]},"geometry_name":"geom","properties":{"state_code":"LA","source":"OSGOF","name":"Favoured Peals Children School","ward_code":"LASKSE06","category":"Secondary","subtype":"Standard","management":"Public","education":"Formal","poi_type":"School","no_of_teachers":null,"no_of_students":null,"global_id":"1c3103fe-5acf-4928-91d0-92a22a2e466c"}},{"type":"Feature","id":"u_fc_poi_school.11622","geometry":{"type":"Point","coordinates":[3.3383549,6.6322725]},"geometry_name":"geom","properties":{"state_code":"LA","source":"GRID","name":"Jerare Summit College Ogba","ward_code":"LASIOE10","category":"Secondary","subtype":"Standard","management":"Private","education":"Formal","poi_type":"School","no_of_teachers":null,"no_of_students":null,"global_id":"1c3612ae-0c52-4868-9dd4-394634ccf69e"}},{"type":"Feature","id":"u_fc_poi_school.11634","geometry":{"type":"Point","coordinates":[3.3116187,6.4777987]},"geometry_name":"geom","properties":{"state_code":"LA","source":"GRID","name":"Iman Comprehensive College","ward_code":"LASAON04","category":"Secondary","subtype":"Standard","management":"Faith Based","education":"Formal","poi_type":"School","no_of_teachers":null,"no_of_students":null,"global_id":"1c407ec2-a487-441a-a26d-db3be9851a51"}},{"type":"Feature","id":"u_fc_poi_school.11644","geometry":{"type":"Point","coordinates":[3.889641,6.485706]},"geometry_name":"geom","properties":{"state_code":"LA","source":"NMIS","name":"Ibeju Senior High School","ward_code":"LASIUI08","category":"Secondary","subtype":"Senior","management":"Public","education":"Formal","poi_type":"School","no_of_teachers":null,"no_of_students":null,"global_id":"1c470b76-ecc4-4137-9be6-6a121c5538a8"}},{"type":"Feature","id":"u_fc_poi_school.11704","geometry":{"type":"Point","coordinates":[3.2458443,6.5847799]},"geometry_name":"geom","properties":{"state_code":"LA","source":"GRID","name":"Akinrotoye Memorial High School","ward_code":"LASAMO15","category":"Secondary","subtype":"Standard","management":"Private","education":"Formal","poi_type":"School","no_of_teachers":18,"no_of_students":140,"global_id":"1c7134a4-f980-44c9-9a7a-36e1c53bd324"}},{"type":"Feature","id":"u_fc_poi_school.11729","geometry":{"type":"Point","coordinates":[3.26393,6.51368]},"geometry_name":"geom","properties":{"state_code":"LA","source":"GRID","name":"Awesome School","ward_code":"LASAMO27","category":"Secondary","subtype":"Standard","management":"Private","education":"Formal","poi_type":"School","no_of_teachers":null,"no_of_students":null,"global_id":"1c7fb105-d9ca-4ed7-8448-3d169f031ad8"}},{"type":"Feature","id":"u_fc_poi_school.11766","geometry":{"type":"Point","coordinates":[3.3864391,6.4836685]},"geometry_name":"geom","properties":{"state_code":"LA","source":"GRID","name":"Longford International School","ward_code":"LASLMD17","category":"Secondary","subtype":"Standard","management":"Private","education":"Formal","poi_type":"School","no_of_teachers":20,"no_of_students":1200,"global_id":"1c982639-241c-4b52-836b-518969caae03"}},{"type":"Feature","id":"u_fc_poi_school.11821","geometry":{"type":"Point","coordinates":[3.981469,6.680891]},"geometry_name":"geom","properties":{"state_code":"LA","source":"NMIS","name":"Okemagba Senior High School","ward_code":"LASEPE15","category":"Secondary","subtype":"Senior","management":"Public","education":"Formal","poi_type":"School","no_of_teachers":null,"no_of_students":null,"global_id":"1cb64b43-a984-40b0-a68a-977eeaf26a6d"}},{"type":"Feature","id":"u_fc_poi_school.11857","geometry":{"type":"Point","coordinates":[3.502237,6.61846]},"geometry_name":"geom","properties":{"state_code":"LA","source":"NMIS","name":"Ayagburen Senior High School","ward_code":"LASIKU05","category":"Secondary","subtype":"Senior","management":"Public","education":"Formal","poi_type":"School","no_of_teachers":null,"no_of_students":null,"global_id":"1ccf5251-a368-4dbe-9b59-3e0ca3f2e74d"}},{"type":"Feature","id":"u_fc_poi_school.11912","geometry":{"type":"Point","coordinates":[3.339164,6.464727]},"geometry_name":"geom","properties":{"state_code":"LA","source":"NMIS","name":"Thankgod School","ward_code":"LASATO03","category":"Secondary","subtype":"Standard","management":"Public","education":"Formal","poi_type":"School","no_of_teachers":null,"no_of_students":null,"global_id":"1cf70b9e-550b-435c-a212-5f1d9af6b54e"}},{"type":"Feature","id":"u_fc_poi_school.11961","geometry":{"type":"Point","coordinates":[4.2193558,6.4158985]},"geometry_name":"geom","properties":{"state_code":"LA","source":"GRID","name":"Ise Senior High School","ward_code":"LASEPE16","category":"Secondary","subtype":"Senior","management":"Public","education":"Formal","poi_type":"School","no_of_teachers":25,"no_of_students":685,"global_id":"1d15389a-f050-4716-a34e-5bbb023b3249"}},{"type":"Feature","id":"u_fc_poi_school.12032","geometry":{"type":"Point","coordinates":[3.7287505,6.6777487]},"geometry_name":"geom","properties":{"state_code":"LA","source":"GRID","name":"Otta Ikosi Junior High School","ward_code":"LASEPE05","category":"Secondary","subtype":"Junior","management":"Public","education":"Formal","poi_type":"School","no_of_teachers":15,"no_of_students":295,"global_id":"1d3f5431-d739-480b-8294-922f36980e31"}},{"type":"Feature","id":"u_fc_poi_school.12126","geometry":{"type":"Point","coordinates":[3.328108,6.489171]},"geometry_name":"geom","properties":{"state_code":"LA","source":"NMIS","name":"Tega High School","ward_code":"LASSUE03","category":"Secondary","subtype":"Standard","management":"Private","education":"Formal","poi_type":"School","no_of_teachers":null,"no_of_students":null,"global_id":"1d72382f-4218-48b6-b77e-2f6a55c0355d"}},{"type":"Feature","id":"u_fc_poi_school.12167","geometry":{"type":"Point","coordinates":[3.344606,6.564781]},"geometry_name":"geom","properties":{"state_code":"LA","source":"NMIS","name":"Bolade Senior Grammar School","ward_code":"LASOIO16","category":"Secondary","subtype":"Senior","management":"Public","education":"Formal","poi_type":"School","no_of_teachers":null,"no_of_students":null,"global_id":"1d939209-bb56-4012-ad51-4d1dac103cf4"}},{"type":"Feature","id":"u_fc_poi_school.12240","geometry":{"type":"Point","coordinates":[3.331032,6.6351688]},"geometry_name":"geom","properties":{"state_code":"LA","source":"GRID","name":"Gibraltar Secondary School Ifako Ijaiye","ward_code":"LASIOE10","category":"Secondary","subtype":"Standard","management":"Private","education":"Formal","poi_type":"School","no_of_teachers":null,"no_of_students":null,"global_id":"1dcdc4b0-69ce-4200-a25e-9a3b5107c19c"}},{"type":"Feature","id":"u_fc_poi_school.12432","geometry":{"type":"Point","coordinates":[3.38632,6.591768]},"geometry_name":"geom","properties":{"state_code":"LA","source":"NMIS","name":"Alpha Plus High School","ward_code":"LASKSE08","category":"Secondary","subtype":"Standard","management":"Private","education":"Formal","poi_type":"School","no_of_teachers":null,"no_of_students":null,"global_id":"1e459e8b-a844-4dbb-b565-d487a5ac562d"}},{"type":"Feature","id":"u_fc_poi_school.12475","geometry":{"type":"Point","coordinates":[3.50109,6.61729]},"geometry_name":"geom","properties":{"state_code":"LA","source":"GRID","name":"Livingstone College","ward_code":"LASIKU05","category":"Secondary","subtype":"Standard","management":"Private","education":"Formal","poi_type":"School","no_of_teachers":null,"no_of_students":null,"global_id":"1e6031ae-8cb1-4475-8514-d9dde5b71558"}},{"type":"Feature","id":"u_fc_poi_school.12646","geometry":{"type":"Point","coordinates":[3.519347,6.5969879]},"geometry_name":"geom","properties":{"state_code":"LA","source":"NMIS","name":"Lagos State Civil Service Junior College","ward_code":"LASIKU02","category":"Secondary","subtype":"Standard","management":"Public","education":"Formal","poi_type":"School","no_of_teachers":null,"no_of_students":null,"global_id":"1ec6e431-f811-4694-b4d4-f526d5f5f4bd"}},{"type":"Feature","id":"u_fc_poi_school.12649","geometry":{"type":"Point","coordinates":[3.3598,6.63435]},"geometry_name":"geom","properties":{"state_code":"LA","source":"OSGOF","name":"The Light House School","ward_code":"LASIKA02","category":"Secondary","subtype":"Standard","management":"Public","education":"Formal","poi_type":"School","no_of_teachers":null,"no_of_students":null,"global_id":"1ec7c229-b467-46a8-8cf4-5fbfd330c214"}},{"type":"Feature","id":"u_fc_poi_school.12671","geometry":{"type":"Point","coordinates":[3.23337,6.5566]},"geometry_name":"geom","properties":{"state_code":"LA","source":"GRID","name":"Deohms International School","ward_code":"LASAMO17","category":"Secondary","subtype":"Standard","management":"Private","education":"Formal","poi_type":"School","no_of_teachers":null,"no_of_students":null,"global_id":"1ed0ee6e-8452-433b-9338-37a707091fb4"}},{"type":"Feature","id":"u_fc_poi_school.12696","geometry":{"type":"Point","coordinates":[3.4140862,6.44501]},"geometry_name":"geom","properties":{"state_code":"LA","source":"GRID","name":"Girls Junior Secondary School","ward_code":"LASEOA16","category":"Secondary","subtype":"Junior","management":"Public","education":"Formal","poi_type":"School","no_of_teachers":null,"no_of_students":null,"global_id":"1edf6a9a-40a9-417d-91e1-8d9ad974f28d"}},{"type":"Feature","id":"u_fc_poi_school.12766","geometry":{"type":"Point","coordinates":[2.952025,6.502249]},"geometry_name":"geom","properties":{"state_code":"LA","source":"NMIS","name":"Ikoga Senior Grammar School","ward_code":"LASBDY14","category":"Secondary","subtype":"Senior","management":"Public","education":"Formal","poi_type":"School","no_of_teachers":null,"no_of_students":null,"global_id":"1f077d9c-cca8-4508-be70-e194fe456672"}},{"type":"Feature","id":"u_fc_poi_school.12957","geometry":{"type":"Point","coordinates":[3.386024,6.531376]},"geometry_name":"geom","properties":{"state_code":"LA","source":"NMIS","name":"St Luke Junior Secondary School II Now Bariga Junior Grammar School","ward_code":"LASSMU14","category":"Secondary","subtype":"Junior","management":"Public","education":"Formal","poi_type":"School","no_of_teachers":null,"no_of_students":null,"global_id":"1f82d9ee-f1fa-4aa6-b14c-fc49536d3f2a"}},{"type":"Feature","id":"u_fc_poi_school.12977","geometry":{"type":"Point","coordinates":[3.56636,6.63114]},"geometry_name":"geom","properties":{"state_code":"LA","source":"GRID","name":"Chrismartin International School","ward_code":"LASIKU04","category":"Secondary","subtype":"Standard","management":"Private","education":"Formal","poi_type":"School","no_of_teachers":null,"no_of_students":null,"global_id":"1f8e9b09-9bf9-42ea-80fc-61ad962d4b52"}},{"type":"Feature","id":"u_fc_poi_school.12992","geometry":{"type":"Point","coordinates":[3.358357,6.532717]},"geometry_name":"geom","properties":{"state_code":"LA","source":"NMIS","name":"Gyasi Private School","ward_code":"LASMUN03","category":"Secondary","subtype":"Aggregate","management":"Private","education":"Formal","poi_type":"School","no_of_teachers":null,"no_of_students":null,"global_id":"1f956175-dd49-4128-ac31-86a4f2e8090b"}},{"type":"Feature","id":"u_fc_poi_school.13038","geometry":{"type":"Point","coordinates":[3.3628747,6.6015763]},"geometry_name":"geom","properties":{"state_code":"LA","source":"GRID","name":"Leeland School","ward_code":"LASIKA15","category":"Secondary","subtype":"Standard","management":"Private","education":"Formal","poi_type":"School","no_of_teachers":null,"no_of_students":null,"global_id":"1fb34dab-2ff8-46d6-8ee8-75f35857ea60"}},{"type":"Feature","id":"u_fc_poi_school.13044","geometry":{"type":"Point","coordinates":[3.3612,6.50699]},"geometry_name":"geom","properties":{"state_code":"LA","source":"GRID","name":"Akintan Senior Secondary School","ward_code":"LASSUE10","category":"Secondary","subtype":"Standard","management":"Public","education":"Formal","poi_type":"School","no_of_teachers":null,"no_of_students":null,"global_id":"1fb8e871-2fc2-40a8-a4d5-641e80ccef2c"}},{"type":"Feature","id":"u_fc_poi_school.13137","geometry":{"type":"Point","coordinates":[3.33177,6.56126]},"geometry_name":"geom","properties":{"state_code":"LA","source":"GRID","name":"Honey Field High School","ward_code":"LASOIO19","category":"Secondary","subtype":"Standard","management":"Private","education":"Formal","poi_type":"School","no_of_teachers":null,"no_of_students":null,"global_id":"1fef9e5a-ee3a-4f99-bfce-2cb7c15e1e7e"}},{"type":"Feature","id":"u_fc_poi_school.13203","geometry":{"type":"Point","coordinates":[3.1965722,6.45716]},"geometry_name":"geom","properties":{"state_code":"LA","source":"GRID","name":"Ebenezer Noble Comprehensive College","ward_code":"LASOJO11","category":"Secondary","subtype":"Standard","management":"Private","education":"Formal","poi_type":"School","no_of_teachers":null,"no_of_students":null,"global_id":"201e7142-c87a-4dc5-b4c3-ea68488d4bff"}},{"type":"Feature","id":"u_fc_poi_school.13338","geometry":{"type":"Point","coordinates":[3.16303,6.48333]},"geometry_name":"geom","properties":{"state_code":"LA","source":"OSGOF","name":"The Sublim School","ward_code":"LASOJO01","category":"Secondary","subtype":"Standard","management":"Public","education":"Formal","poi_type":"School","no_of_teachers":null,"no_of_students":null,"global_id":"2067cc3f-1b9c-4da9-89a2-10acb788d2df"}},{"type":"Feature","id":"u_fc_poi_school.13487","geometry":{"type":"Point","coordinates":[3.501989,6.618762]},"geometry_name":"geom","properties":{"state_code":"LA","source":"NMIS","name":"United Junior High School","ward_code":"LASIKU05","category":"Secondary","subtype":"Junior","management":"Public","education":"Formal","poi_type":"School","no_of_teachers":null,"no_of_students":null,"global_id":"20b25520-a36f-45a3-a122-acdb145a40de"}},{"type":"Feature","id":"u_fc_poi_school.13491","geometry":{"type":"Point","coordinates":[3.48598,6.65666]},"geometry_name":"geom","properties":{"state_code":"LA","source":"GRID","name":"Prosperity And Peace Gathering Academy","ward_code":"LASIKU06","category":"Secondary","subtype":"Standard","management":"Private","education":"Formal","poi_type":"School","no_of_teachers":null,"no_of_students":null,"global_id":"20b519e5-2d9c-45f1-8cef-f7ce6cda72a4"}},{"type":"Feature","id":"u_fc_poi_school.13532","geometry":{"type":"Point","coordinates":[3.32681,6.66618]},"geometry_name":"geom","properties":{"state_code":"LA","source":"OSGOF","name":"Agape Boys School","ward_code":"LASIOE12","category":"Secondary","subtype":"Standard","management":"Public","education":"Formal","poi_type":"School","no_of_teachers":null,"no_of_students":null,"global_id":"20d27eb2-89a6-4df8-98d6-c2918f840da3"}},{"type":"Feature","id":"u_fc_poi_school.13556","geometry":{"type":"Point","coordinates":[3.2600884,6.5761529]},"geometry_name":"geom","properties":{"state_code":"LA","source":"OSGOF","name":"The Cardinal School","ward_code":"LASAMO28","category":"Secondary","subtype":"Standard","management":"Public","education":"Formal","poi_type":"School","no_of_teachers":null,"no_of_students":null,"global_id":"20e44118-df13-43b3-bc2c-f4e0d6d83577"}},{"type":"Feature","id":"u_fc_poi_school.13637","geometry":{"type":"Point","coordinates":[3.20521,6.5699]},"geometry_name":"geom","properties":{"state_code":"LA","source":"GRID","name":"Master Key International School","ward_code":"LASAMO15","category":"Secondary","subtype":"Standard","management":"Private","education":"Formal","poi_type":"School","no_of_teachers":null,"no_of_students":null,"global_id":"211da014-0a06-4baa-847c-d8623710132b"}},{"type":"Feature","id":"u_fc_poi_school.13750","geometry":{"type":"Point","coordinates":[3.37385,6.607356]},"geometry_name":"geom","properties":{"state_code":"LA","source":"NMIS","name":"Thescol College","ward_code":"LASKSE11","category":"Secondary","subtype":"Standard","management":"Private","education":"Formal","poi_type":"School","no_of_teachers":null,"no_of_students":null,"global_id":"217284d3-1fd9-409b-b47d-7ea2c07b07c3"}},{"type":"Feature","id":"u_fc_poi_school.13807","geometry":{"type":"Point","coordinates":[3.368172,6.573779]},"geometry_name":"geom","properties":{"state_code":"LA","source":"NMIS","name":"Topmost International Comprehensive Secondary School","ward_code":"LASIKA18","category":"Secondary","subtype":"Standard","management":"Private","education":"Formal","poi_type":"School","no_of_teachers":null,"no_of_students":null,"global_id":"219c4dd3-7c95-4ab2-87f3-84f61827aa44"}},{"type":"Feature","id":"u_fc_poi_school.13851","geometry":{"type":"Point","coordinates":[2.728474,6.41798]},"geometry_name":"geom","properties":{"state_code":"LA","source":"NMIS","name":"Theotan College","ward_code":"LASBDY10","category":"Secondary","subtype":"Aggregate","management":"Private","education":"Formal","poi_type":"School","no_of_teachers":null,"no_of_students":null,"global_id":"21b8bb7e-6e7d-4880-8bdf-1eddf8b50510"}},{"type":"Feature","id":"u_fc_poi_school.13874","geometry":{"type":"Point","coordinates":[2.910182,6.43889]},"geometry_name":"geom","properties":{"state_code":"LA","source":"NMIS","name":"State Senior High School Ibereko","ward_code":"LASBDY09","category":"Secondary","subtype":"Senior","management":"Public","education":"Formal","poi_type":"School","no_of_teachers":null,"no_of_students":null,"global_id":"21c6e400-14b8-4645-bbfc-1300cacc6ed9"}},{"type":"Feature","id":"u_fc_poi_school.13887","geometry":{"type":"Point","coordinates":[3.34469,6.56789]},"geometry_name":"geom","properties":{"state_code":"LA","source":"OSGOF","name":"Bluesleeves School","ward_code":"LASOIO08","category":"Secondary","subtype":"Standard","management":"Public","education":"Formal","poi_type":"School","no_of_teachers":null,"no_of_students":null,"global_id":"21cce05a-463c-4d07-af84-06c416279657"}},{"type":"Feature","id":"u_fc_poi_school.13976","geometry":{"type":"Point","coordinates":[3.3430917,6.439747]},"geometry_name":"geom","properties":{"state_code":"LA","source":"GRID","name":"Olodi Apapa Junior Secondary School","ward_code":"LASATO15","category":"Secondary","subtype":"Junior","management":"Public","education":"Formal","poi_type":"School","no_of_teachers":null,"no_of_students":null,"global_id":"2202149e-04a8-4a23-be7b-a82d14cd5052"}},{"type":"Feature","id":"u_fc_poi_school.14066","geometry":{"type":"Point","coordinates":[3.258052,6.454894]},"geometry_name":"geom","properties":{"state_code":"LA","source":"NMIS","name":"Satellite Junior Secondary School","ward_code":"LASAON01","category":"Secondary","subtype":"Junior","management":"Public","education":"Formal","poi_type":"School","no_of_teachers":null,"no_of_students":null,"global_id":"223a2990-c1d2-4427-ad09-28f1e1806faf"}},{"type":"Feature","id":"u_fc_poi_school.14139","geometry":{"type":"Point","coordinates":[3.404873,6.453471]},"geometry_name":"geom","properties":{"state_code":"LA","source":"NMIS","name":"Okesuna Senior High School","ward_code":"LASLID12","category":"Secondary","subtype":"Senior","management":"Public","education":"Formal","poi_type":"School","no_of_teachers":null,"no_of_students":null,"global_id":"22741b46-1e44-452f-8122-5da0458ffb3a"}},{"type":"Feature","id":"u_fc_poi_school.14159","geometry":{"type":"Point","coordinates":[3.39775,6.59396]},